[{"business_id":"rVBPQdeayMYht4Uv_FOLHg","name":"Gourmet Burger Company","city":"Toronto","latitude":43.6332914,"longitude":-79.5317683,"review_count":13,"categories":"Restaurants, Burgers, Food"},{"business_id":"d9A5lhFHOBvEw-BxSYnWOA","name":"Song Cook's Corean Chilli","city":"Toronto","latitude":43.6637457,"longitude":-79.4164519,"review_count":4,"categories":"Restaurants, Korean"},{"business_id":"37kk0IW6jL7ZlxZF6k2QBg","name":"Edulis","city":"Toronto","latitude":43.641948,"longitude":-79.4065795,"review_count":115,"categories":"Restaurants, Spanish, French"},{"business_id":"y1Er-SodAde9QZIcgFf45g","name":"Blackod Steak and Fish House","city":"Toronto","latitude":43.7343668,"longitude":-79.4044224,"review_count":8,"categories":"Restaurants, Steakhouses, Seafood"},{"business_id":"0rMFhLzeq3Z2OaJ62MQXlw","name":"Spiga Ristorante","city":"Toronto","latitude":43.6862465,"longitude":-79.3935614,"review_count":14,"categories":"Restaurants, Italian"},{"business_id":"rOyzxtWGekcMBc4aNinZjg","name":"Bistro Grande","city":"Toronto","latitude":43.7003475,"longitude":-79.4296338,"review_count":13,"categories":"Restaurants, Italian"},{"business_id":"LRRhbtaohbXGMdaJ1yZjbQ","name":"Kinoya Sushi Bar","city":"Toronto","latitude":43.6463565,"longitude":-79.3900436,"review_count":38,"categories":"Restaurants, Sushi Bars"},{"business_id":"zy_NHTqtfSrfTGGPoqy4Mw","name":"Chopin Restaurant","city":"Toronto","latitude":43.6442149,"longitude":-79.4480908,"review_count":24,"categories":"Restaurants, Ukrainian, Polish"},{"business_id":"sfcmewwXftvjxRn_Xfpz-w","name":"Anoush Shawarma","city":"Toronto","latitude":43.6436378,"longitude":-79.3910816,"review_count":15,"categories":"Restaurants, Middle Eastern"},{"business_id":"K5Q2vkF5UpytV9Q1rB-5Yg","name":"Akira Back","city":"Toronto","latitude":43.6452974,"longitude":-79.3923967,"review_count":124,"categories":"Restaurants, Japanese, Korean, Asian Fusion"},{"business_id":"lCwUmc0IEhIMz7lyZ2nwuA","name":"Heart Clean Eats","city":"Toronto","latitude":43.6391167,"longitude":-79.398135,"review_count":7,"categories":"Restaurants, Vegetarian, Breakfast & Brunch, Sandwiches, Salad, Coffee & Tea, Juice Bars & Smoothies, Food"},{"business_id":"IN8BHY7zkhjUxUh4qnbrHg","name":"Camarra's Pizzeria & Restaurant","city":"Toronto","latitude":43.7083419,"longitude":-79.4530944,"review_count":22,"categories":"Restaurants, Italian, Pizza, Event Planning & Services, Caterers"},{"business_id":"gc2XZigymAwwNkjihdkO5w","name":"DeCourses Caf\u00e9","city":"Toronto","latitude":43.5973433,"longitude":-79.5217241,"review_count":18,"categories":"Restaurants, Bubble Tea, Breakfast & Brunch, Food, Cafes"},{"business_id":"sHobmDWiTSsRvcE7H4KkgA","name":"Wild Burger","city":"Toronto","latitude":43.7066823567,"longitude":-79.3894361,"review_count":31,"categories":"Restaurants, Burgers, Cheesesteaks"},{"business_id":"EwlA5wluJw5zzXxtA42brQ","name":"Bar Centrale","city":"Toronto","latitude":43.6800369,"longitude":-79.3905192,"review_count":5,"categories":"Restaurants, Bars, Wine Bars, Nightlife, Italian"},{"business_id":"AOhJfJVuEPUh_in7WHDnzQ","name":"Subway","city":"Toronto","latitude":43.6889196,"longitude":-79.3945875,"review_count":3,"categories":"Restaurants, Sandwiches, Fast Food"},{"business_id":"qW670GkK3WdOr3gQWpUegA","name":"Com Tam Dao Vien Peach Garden Restaurant","city":"Toronto","latitude":43.7507696674,"longitude":-79.5464342695,"review_count":8,"categories":"Restaurants, Vietnamese"},{"business_id":"LuBj6jfwKsbpKy441wkRlQ","name":"Sushi Xtra","city":"Toronto","latitude":43.6487356,"longitude":-79.3952314,"review_count":57,"categories":"Restaurants, Sushi Bars"},{"business_id":"IfUkm42SB9D0m_ZbkQ711A","name":"The Fish Store & Sandwiches","city":"Toronto","latitude":43.6549209,"longitude":-79.4163139,"review_count":138,"categories":"Restaurants, Seafood, Sandwiches"},{"business_id":"U7JrKn4fYW2RpJa7Nl-X_g","name":"The Carlton Restaurant","city":"Toronto","latitude":43.6617125,"longitude":-79.3811043,"review_count":6,"categories":"Restaurants, Canadian (New)"},{"business_id":"ERnG-1q3igX3VSgm5uLZ6A","name":"Pizza e Pazzi","city":"Toronto","latitude":43.678,"longitude":-79.443872,"review_count":77,"categories":"Restaurants, Pizza, Italian, Food"},{"business_id":"SVv0PeX-s_XMH1LxUrUL4w","name":"Quiznos Sub","city":"Toronto","latitude":43.6468356,"longitude":-79.3825552,"review_count":3,"categories":"Restaurants, Sandwiches, Fast Food"},{"business_id":"DGPo_cIF9fHkfgYQkxhiMQ","name":"Mr Souvlaki","city":"Toronto","latitude":43.6451535,"longitude":-79.5223102,"review_count":4,"categories":"Restaurants, Greek, Food"},{"business_id":"2cUWtkuu5ylH1dOvYguk1Q","name":"Bistro Normandie Cafe","city":"Toronto","latitude":43.6797985,"longitude":-79.3412269,"review_count":5,"categories":"Restaurants, French, Patisserie\/Cake Shop, Food, Cafes"},{"business_id":"rElVzlHf_zxWeOCj8Vj_iw","name":"Hernando's Hideaway","city":"Toronto","latitude":43.6643838,"longitude":-79.3841464,"review_count":30,"categories":"Restaurants, Tex-Mex, Event Planning & Services, Caterers"},{"business_id":"1pU0GJXTDPTJ2HfcuZt7dA","name":"Brother's Pizza and Wings","city":"Toronto","latitude":43.6878784,"longitude":-79.3484053,"review_count":8,"categories":"Restaurants, Pizza"},{"business_id":"nER4r71-nLBpy4ZkrsAOYg","name":"Park Hyatt Toronto Kosher Annona Restaurant","city":"Toronto","latitude":43.6692689,"longitude":-79.3950356,"review_count":5,"categories":"Restaurants, Kosher"},{"business_id":"lBwx8insD-RNa-_lOtA3kA","name":"786 Halal Biryani House","city":"Toronto","latitude":43.658087,"longitude":-79.3710422,"review_count":6,"categories":"Restaurants, Indian, Pakistani"},{"business_id":"Ehq7wmTyxVdTJkv_MoRqmg","name":"Wraps & Jerk","city":"Toronto","latitude":43.7677879333,"longitude":-79.4717178345,"review_count":12,"categories":"Restaurants, Caribbean"},{"business_id":"DaTQLers4x_DbGPi7r_xVw","name":"Rebozos College","city":"Toronto","latitude":43.656674992,"longitude":-79.4071152266,"review_count":16,"categories":"Restaurants, Mexican"},{"business_id":"NmX56-YUbVvmNW0LPCYaYQ","name":"Aquarela Restaurant","city":"Toronto","latitude":43.722994,"longitude":-79.4980982,"review_count":8,"categories":"Restaurants, Caribbean, Latin American"},{"business_id":"mw69E3vLAbN-ra92f5Y8ZQ","name":"Black Cat Espresso Bar","city":"Toronto","latitude":43.6527051,"longitude":-79.4323481,"review_count":52,"categories":"Restaurants, Sandwiches, Food, Cafes, Coffee & Tea, Ice Cream & Frozen Yogurt, Breakfast & Brunch"},{"business_id":"wuZcVcG2EJHQIEKEbLFRwQ","name":"The Abbey Pub & Steak House","city":"Toronto","latitude":43.6530612,"longitude":-79.4279396,"review_count":13,"categories":"Restaurants, Bars, Steakhouses, Pubs, Nightlife"},{"business_id":"aLSMyYyPEuKaDrrTrwYOEg","name":"Baba Ganoush Shawarma Restaurant","city":"Toronto","latitude":43.7541953406,"longitude":-79.468643087,"review_count":27,"categories":"Restaurants, Mediterranean, Greek, Middle Eastern, Kebab, Turkish"},{"business_id":"9LE2yGl23qxitNc9mkpbjA","name":"Fresca Pizza & Pasta","city":"Toronto","latitude":43.6578089,"longitude":-79.4017213,"review_count":110,"categories":"Restaurants, Pizza, Italian, Food, Specialty Food"},{"business_id":"nbhBRhZtdaZmMMeb2i02pg","name":"Sunnyside Grill","city":"Toronto","latitude":43.7821307238,"longitude":-79.4904436859,"review_count":15,"categories":"Restaurants, Breakfast & Brunch"},{"business_id":"vcxzcp7D9IiyvyLlwpgvVg","name":"JP Sushi","city":"Toronto","latitude":43.6602286,"longitude":-79.4798078,"review_count":24,"categories":"Restaurants, Sushi Bars, Japanese"},{"business_id":"sc-FCrRK6iM28N_N5AKuPw","name":"Popeye's","city":"Toronto","latitude":43.6545202,"longitude":-79.369416,"review_count":3,"categories":"Restaurants, Fast Food"},{"business_id":"F4w3qLxGbZMdkHut_oGH_Q","name":"Northern Smokes","city":"Toronto","latitude":43.7827827644,"longitude":-79.1695746034,"review_count":4,"categories":"Restaurants, Halal, Barbeque"},{"business_id":"8aPTNdySQ2ipjWtCJG0vnw","name":"Public","city":"Toronto","latitude":43.6553017,"longitude":-79.4140145,"review_count":4,"categories":"Restaurants, Italian"},{"business_id":"p4hzwmiBvq3Clj65JyPGSQ","name":"Wild Wing","city":"Toronto","latitude":43.6520222,"longitude":-79.4479479,"review_count":24,"categories":"Restaurants, Chicken Wings, Burgers, Sandwiches"},{"business_id":"Eo4s6CmPpEcXCkfg9Zk_EA","name":"Pizza Hut","city":"Toronto","latitude":43.6778423,"longitude":-79.3902487,"review_count":8,"categories":"Restaurants, Chicken Wings, Pizza, Italian, Food Delivery Services, Food"},{"business_id":"s-aGceIVH-XrIWdC4Jkbeg","name":"Hola Tapas Bar","city":"Toronto","latitude":43.6638814,"longitude":-79.3305676,"review_count":23,"categories":"Restaurants, Cafes, Cocktail Bars, Bars, Spanish, Tapas Bars, Breakfast & Brunch, Wine Bars, Nightlife"},{"business_id":"Yt5gK4E9NqVa14WNiQdBlQ","name":"Pho Nhi","city":"Toronto","latitude":43.7836563478,"longitude":-79.287934117,"review_count":34,"categories":"Restaurants, Vietnamese"},{"business_id":"02BXFKzu1rgaYulNGYvi6g","name":"Matsuda Japanese Cuisine","city":"Toronto","latitude":43.831795518,"longitude":-79.2663108185,"review_count":275,"categories":"Restaurants, Japanese"},{"business_id":"2d9RbgRtHJyTRzY99GBNOQ","name":"Garden Restaurant","city":"Toronto","latitude":43.6551786266,"longitude":-79.3857817644,"review_count":45,"categories":"Restaurants, Chinese"},{"business_id":"1loClYTKmAlUxXERUZotRQ","name":"Thai Boys","city":"Toronto","latitude":43.6722484,"longitude":-79.3212267,"review_count":7,"categories":"Restaurants, Thai"},{"business_id":"a8uuOGWdjVWRCIXoQGVkIA","name":"yuan yuan Chinese Restaurant","city":"Toronto","latitude":43.7919977,"longitude":-79.2504891,"review_count":11,"categories":"Restaurants, Chinese"},{"business_id":"ccTA3iIHza7I4fUgVvbIeA","name":"Tim Hortons","city":"Toronto","latitude":43.7838598,"longitude":-79.2051993,"review_count":5,"categories":"Restaurants, Cafes"},{"business_id":"9XLH_grfIYKR7d5ZT9ZX_A","name":"Melanie's Bistro & Patisserie","city":"Toronto","latitude":43.6849185,"longitude":-79.3172223,"review_count":54,"categories":"Restaurants, Italian, Breakfast & Brunch, Diners, American (New)"},{"business_id":"MejjNlwIlKkLv6Pya5OOWQ","name":"A&W","city":"Toronto","latitude":43.6469333,"longitude":-79.4064085,"review_count":5,"categories":"Restaurants, Fast Food, Burgers"},{"business_id":"Zl6csaZ5HBka3SKBphHXrQ","name":"Midi Bistro","city":"Toronto","latitude":43.6558282,"longitude":-79.3922846,"review_count":95,"categories":"Restaurants, French"},{"business_id":"4m_hApwQ054v3ue_OxFmGw","name":"Patria","city":"Toronto","latitude":43.6454236,"longitude":-79.3962213,"review_count":472,"categories":"Restaurants, Spanish, Bars, Wine Bars, Nightlife, Tapas Bars"},{"business_id":"rBbyzu-D2bKyLNOLSRmFAw","name":"The Church Street Diner","city":"Toronto","latitude":43.6670117,"longitude":-79.3812744,"review_count":17,"categories":"Restaurants, Diners"},{"business_id":"1HRSElW1HgBiTtSNrhjMeA","name":"Fine Asian Bowl","city":"Toronto","latitude":43.7066913,"longitude":-79.3758028,"review_count":4,"categories":"Restaurants, Vietnamese"},{"business_id":"m-HMvJPKy5e7XXk8-jr9BA","name":"The Second Cup","city":"Toronto","latitude":43.6483999425,"longitude":-79.3736010667,"review_count":18,"categories":"Restaurants, Cafes"},{"business_id":"VcZQXpk6vYAXwemOrC9PTw","name":"Sagano","city":"Toronto","latitude":43.776815,"longitude":-79.282992,"review_count":25,"categories":"Restaurants, Japanese"},{"business_id":"cj_9eTPR0JBqk9qt2VmzFw","name":"Hodo Kwaja","city":"Toronto","latitude":43.6642946,"longitude":-79.4155574,"review_count":212,"categories":"Restaurants, Korean, Food, Bakeries"},{"business_id":"upZ9FEpOh1Pr_GY-rUh0vw","name":"The Beverley Hotel","city":"Toronto","latitude":43.6494377,"longitude":-79.3920668,"review_count":17,"categories":"Restaurants, Event Planning & Services, Canadian (New), Hotels, Nightlife, Hotels & Travel, Bars"},{"business_id":"OQ9rVtBEFFI4jkdEo9AoRg","name":"Loons Restaurant & Pub","city":"Toronto","latitude":43.6517304,"longitude":-79.4512596,"review_count":25,"categories":"Restaurants, Bars, American (Traditional), Nightlife, Pubs"},{"business_id":"jVJcR4y8q7FuwlK0cYVuyw","name":"Starbucks","city":"Toronto","latitude":43.6128989614,"longitude":-79.5557354906,"review_count":15,"categories":"Restaurants, Food, Cafes, Coffee & Tea"},{"business_id":"uklv_8iGhXk-Z_WukBdV_g","name":"Fresh Burger","city":"Toronto","latitude":43.7669808,"longitude":-79.4120261,"review_count":4,"categories":"Restaurants, Burgers"},{"business_id":"_Wyo52ijeq3QgcmkIrhmAQ","name":"Lemongrass Restaurant","city":"Toronto","latitude":43.7065802,"longitude":-79.3758028,"review_count":35,"categories":"Restaurants, Thai, Vietnamese"},{"business_id":"l_hx2Yb9SIr1TzHHJpJ_xw","name":"Habeebe's Shawarma","city":"Toronto","latitude":43.6398818,"longitude":-79.3820882,"review_count":3,"categories":"Restaurants, Middle Eastern"},{"business_id":"5QtwCMMn4kv1nVnO47mpsg","name":"Kings Delight","city":"Toronto","latitude":43.6738524,"longitude":-79.4601047,"review_count":6,"categories":"Restaurants, Caribbean"},{"business_id":"fUOY7g6JcO0m3iZNfK0O0g","name":"Injapan","city":"Toronto","latitude":43.6397312,"longitude":-79.4212973,"review_count":49,"categories":"Restaurants, Sushi Bars, Japanese"},{"business_id":"lEaL5O5n9Sni6RiwXv42Ww","name":"Soulas Modern Greek Cuisine","city":"Toronto","latitude":43.6782533847,"longitude":-79.3488195911,"review_count":26,"categories":"Restaurants, Greek"},{"business_id":"_Gl7RqOkCUQr8kjN8yGf6w","name":"Burrito Gordito","city":"Toronto","latitude":43.6480711541,"longitude":-79.3934180215,"review_count":40,"categories":"Restaurants, Food, Mexican"},{"business_id":"3G4KcScA5srgsg-fAtWs2Q","name":"Tokyo Grill","city":"Toronto","latitude":43.6651953,"longitude":-79.3849242,"review_count":92,"categories":"Restaurants, Japanese"},{"business_id":"JhJRK4X8A7q2-m8_ubcmuQ","name":"Pizzeria Moretti","city":"Toronto","latitude":43.6447358,"longitude":-79.3923614,"review_count":5,"categories":"Restaurants, Italian, Pizza"},{"business_id":"l9QSMhlEF1tnaxb2EW9iFQ","name":"Kaito","city":"Toronto","latitude":43.6773785,"longitude":-79.4445649,"review_count":22,"categories":"Restaurants, Sushi Bars"},{"business_id":"_U9_mzobQzDQygH50NoxUw","name":"VEDA","city":"Toronto","latitude":43.6609193,"longitude":-79.4008285,"review_count":5,"categories":"Restaurants, Indian"},{"business_id":"MOB5oCEKCw3S76SsiuQjqA","name":"Mary Be Kitchen","city":"Toronto","latitude":43.6876683,"longitude":-79.3949298,"review_count":50,"categories":"Restaurants, Canadian (New)"},{"business_id":"W9Bh_7mfuUrEAdQBJMVOvA","name":"Sang-Ho Seafood Restaurant","city":"Toronto","latitude":43.6529547,"longitude":-79.3991357,"review_count":44,"categories":"Restaurants, Seafood, Chinese"},{"business_id":"Bx6mt28dfQxPNMUXF35U_w","name":"Davisville Diner","city":"Toronto","latitude":43.7013098,"longitude":-79.3974301,"review_count":4,"categories":"Restaurants, Diners"},{"business_id":"9B_lhM_Ys7AIykLMvyPypg","name":"El Venezolano","city":"Toronto","latitude":43.6798013667,"longitude":-79.3411719427,"review_count":14,"categories":"Restaurants, Latin American, Venezuelan"},{"business_id":"mfSzFBZGHspQQ61tuczmdg","name":"Good Morning Toronto Restaurant","city":"Toronto","latitude":43.688689,"longitude":-79.300222,"review_count":4,"categories":"Restaurants, Greek"},{"business_id":"i4hc4C9uYCfeZIQJ8Ha6ag","name":"Essen","city":"Toronto","latitude":43.64956,"longitude":-79.425389,"review_count":14,"categories":"Restaurants, Middle Eastern"},{"business_id":"uM6E7pQrkjhy0_n7wkvWnA","name":"Mcdonalds","city":"Toronto","latitude":43.6579875,"longitude":-79.4350058,"review_count":3,"categories":"Restaurants, Burgers, Food, Fast Food"},{"business_id":"h-OIbmg9vR8VC7fXUJw75w","name":"Pho Cuu Long Mien Tay","city":"Toronto","latitude":43.7402480978,"longitude":-79.5134747028,"review_count":49,"categories":"Restaurants, Vietnamese"},{"business_id":"9Z6WpoBnuBZBWr0ML6WRpQ","name":"Domino's Pizza","city":"Toronto","latitude":43.6554468,"longitude":-79.365425,"review_count":9,"categories":"Restaurants, Pizza, Italian"},{"business_id":"QX5Y_BIxlMG3B3vV1zx1Gw","name":"Cherry Street Bar-B-Que","city":"Toronto","latitude":43.6455994,"longitude":-79.352298,"review_count":150,"categories":"Restaurants, Barbeque"},{"business_id":"1pdkfe-fVY3cW8NTtHfb6Q","name":"Ali Baba's","city":"Toronto","latitude":43.66228,"longitude":-79.4255755,"review_count":7,"categories":"Restaurants, Middle Eastern"},{"business_id":"XA7hhTrBn0QQA18DK-VJoQ","name":"Pizza Nova","city":"Toronto","latitude":43.6694589,"longitude":-79.3037518,"review_count":4,"categories":"Restaurants, Pizza"},{"business_id":"Go7A32yJ0eFXqE_-8Os7EQ","name":"Mizumi Sushi Asian Cuisin","city":"Toronto","latitude":43.7909589,"longitude":-79.4452533,"review_count":10,"categories":"Restaurants, Chinese, Thai, Japanese"},{"business_id":"o4mLcNcURwn-uXXC8_mouw","name":"The Merchant","city":"Toronto","latitude":43.6492591,"longitude":-79.3852965,"review_count":24,"categories":"Restaurants, Gastropubs"},{"business_id":"lfkYryDWwYZXDKGZoBltsg","name":"Toronto Big Bowl","city":"Toronto","latitude":43.6558222,"longitude":-79.3937269,"review_count":4,"categories":"Restaurants, Chinese"},{"business_id":"z5dE6ACPVnoyOOiAynMhmw","name":"Chippy's Fish & Chips","city":"Toronto","latitude":43.6455448,"longitude":-79.4117113,"review_count":104,"categories":"Restaurants, Fish & Chips, Seafood, Fast Food"},{"business_id":"FrT9Ij-uK4yjesnIoGSJrw","name":"Jalapeno's Mexican Cuisine","city":"Toronto","latitude":43.6434042,"longitude":-79.405133,"review_count":6,"categories":"Restaurants, Mexican"},{"business_id":"IQAZn0i5mpj690wPLxcf0g","name":"C Stores","city":"Toronto","latitude":43.6524316,"longitude":-79.3628798,"review_count":3,"categories":"Restaurants, Delis, Food, Convenience Stores"},{"business_id":"Z-y_2gkGo8DmXxwWspWORQ","name":"Le Gourmand","city":"Toronto","latitude":43.704607,"longitude":-79.3978674,"review_count":4,"categories":"Restaurants, Breakfast & Brunch, Food, Grocery"},{"business_id":"cTbFJzHQzFSX-z3JF4abKQ","name":"One Restaurant","city":"Toronto","latitude":43.6708595,"longitude":-79.3934235,"review_count":190,"categories":"Restaurants, American (New), Canadian (New)"},{"business_id":"CaJ-9PN-W9g6sjyFbB8Kdg","name":"Golden","city":"Toronto","latitude":43.6533782,"longitude":-79.4474416,"review_count":5,"categories":"Restaurants, Cafes"},{"business_id":"vLWphV8xAVYflOn1gCU9Jw","name":"Paramount Lebanese Kitchen","city":"Toronto","latitude":43.6479963117,"longitude":-79.3958004629,"review_count":37,"categories":"Restaurants, Middle Eastern, Chicken Wings, Halal, Lebanese, Barbeque"},{"business_id":"CB4nlzzMxf91Tyte1pf1nw","name":"Narooe Restaurant","city":"Toronto","latitude":43.781315,"longitude":-79.41567,"review_count":10,"categories":"Restaurants, Korean"},{"business_id":"Rnck2nc0j-FbolNiae2grg","name":"Golden Asian Cuisine","city":"Toronto","latitude":43.71187,"longitude":-79.5653778,"review_count":23,"categories":"Restaurants, Asian Fusion, Hakka, Chinese"},{"business_id":"S4qTvUJUgL2tIrPV8CYqLQ","name":"Asap City In & Out","city":"Toronto","latitude":43.6560084,"longitude":-79.3767156,"review_count":7,"categories":"Restaurants, Burgers, Salad, Sandwiches, Halal"},{"business_id":"mTD9IKo7loPg6QTLDcL6YQ","name":"Eggsmart","city":"Toronto","latitude":43.6570378,"longitude":-79.3842312,"review_count":71,"categories":"Restaurants, Breakfast & Brunch, Burgers, Vegetarian"},{"business_id":"5bS1qpjoUZvWX-GsMzF-bg","name":"Grillway Souvlaki House On Bloor","city":"Toronto","latitude":43.649709,"longitude":-79.4837688,"review_count":11,"categories":"Restaurants, Burgers, Greek, Salad"},{"business_id":"KtNPcK6x9Dxj3aYGis5wgg","name":"Indian Kiss","city":"Toronto","latitude":43.6661321,"longitude":-79.4644767,"review_count":10,"categories":"Restaurants, Indian, Food"},{"business_id":"iTIBO7xk6j4Zuli5YqI8Jg","name":"Family Dumpling House","city":"Toronto","latitude":43.6537635,"longitude":-79.396143,"review_count":4,"categories":"Restaurants, Chinese"},{"business_id":"Vd6FVCKq0bHqVneb0DjTnw","name":"Zaza Espresso Bar","city":"Toronto","latitude":43.6808761,"longitude":-79.4290026,"review_count":20,"categories":"Restaurants, Cafes, Nightlife, Coffee & Tea, Ice Cream & Frozen Yogurt, Bars, Pizza, Food"},{"business_id":"2u58B0ZQBT04hBTTzVmojg","name":"Craft Dogs","city":"Toronto","latitude":43.6497601,"longitude":-79.3746797,"review_count":30,"categories":"Restaurants, Hot Dogs"},{"business_id":"hGAbF8omI9vkr219GYxqSQ","name":"Nando's","city":"Toronto","latitude":43.670046,"longitude":-79.3017266,"review_count":4,"categories":"Restaurants, Chicken Shop, Portuguese"},{"business_id":"dBgsdUgEdB8vqCREi9QfTA","name":"Regulars","city":"Toronto","latitude":43.6441913,"longitude":-79.4025781,"review_count":48,"categories":"Restaurants, Bars, Nightlife"},{"business_id":"UAXz2KC1aXpxzV-MLdXbmQ","name":"Delhi Bistro","city":"Toronto","latitude":43.6725772,"longitude":-79.2885159,"review_count":34,"categories":"Restaurants, Indian"},{"business_id":"Zp5xil8pC6Bm-fFOWIbh0Q","name":"Burrito Zone","city":"Toronto","latitude":43.7762369027,"longitude":-79.2353184561,"review_count":16,"categories":"Restaurants, Halal, Mexican"},{"business_id":"vlFzcXqS2E1J1Dg-n19j8w","name":"Cocina de Do\u00f1a Julia","city":"Toronto","latitude":43.6654486,"longitude":-79.4525361,"review_count":9,"categories":"Restaurants, Latin American"},{"business_id":"bYvm_7jKKaewN2kFLFF4TA","name":"Fit For Life Sandwich Bar","city":"Toronto","latitude":43.644737,"longitude":-79.3980594,"review_count":4,"categories":"Restaurants, Sandwiches"},{"business_id":"tNpjmubdCRNzDznBwjgRHA","name":"Rain","city":"Toronto","latitude":43.6456899,"longitude":-79.3905064,"review_count":6,"categories":"Restaurants, Asian Fusion"},{"business_id":"uG0yvj2JWfCf0eaIgxcwXQ","name":"Our Spot","city":"Toronto","latitude":43.6548261,"longitude":-79.4007684,"review_count":127,"categories":"Restaurants, Breakfast & Brunch, Food, Coffee & Tea, Cafes"},{"business_id":"SWpJG44iX0fw18zYZifcRA","name":"Thai One On","city":"Toronto","latitude":43.7364126,"longitude":-79.4205214,"review_count":30,"categories":"Restaurants, Thai, Food"},{"business_id":"tpmMELSsUxS2x1FdM6k9nQ","name":"Wu's Garden Buffet","city":"Toronto","latitude":43.805803,"longitude":-79.338328,"review_count":11,"categories":"Restaurants, Buffets, Chinese"},{"business_id":"t2oJEG1YXkO5EMoo28r80Q","name":"Jules Bistro","city":"Toronto","latitude":43.6637238,"longitude":-79.3285777,"review_count":13,"categories":"Restaurants, Bistros, French"},{"business_id":"UnouNrNq82DHYs5e8nGJNA","name":"Le Notre Bistro","city":"Toronto","latitude":43.6605944343,"longitude":-79.4148484841,"review_count":24,"categories":"Restaurants, Wine Bars, French, Bars, Nightlife"},{"business_id":"kLT6Huss95GiOkNVqnKLEQ","name":"The Healthy Greek","city":"Toronto","latitude":43.6502718,"longitude":-79.3887054,"review_count":24,"categories":"Restaurants, Sandwiches"},{"business_id":"1WPxPejsYeOsYvdDepA91g","name":"The Simple Kitchen","city":"Toronto","latitude":43.6413902,"longitude":-79.44689,"review_count":26,"categories":"Restaurants, Acai Bowls, Food, Juice Bars & Smoothies, Canadian (New), Coffee & Tea, Specialty Food"},{"business_id":"I-4CIMvJy_M7U4EuCijxZw","name":"Westown Chinese Food","city":"Toronto","latitude":43.6650312,"longitude":-79.4595114,"review_count":37,"categories":"Restaurants, Chinese, Food, Ethnic Food, Specialty Food"},{"business_id":"-UPP0Q_kZsuQ2zZ1k7lbyQ","name":"Tasty Delight Fusion Cuisine","city":"Toronto","latitude":43.791045,"longitude":-79.36715,"review_count":41,"categories":"Restaurants, Asian Fusion, Chinese"},{"business_id":"n-0gq0XscN32eRRAY9_s-g","name":"Sardab Restaurant","city":"Toronto","latitude":43.7907409,"longitude":-79.418296,"review_count":19,"categories":"Restaurants, Persian\/Iranian"},{"business_id":"Hza5nxnDz-MEnCG-Im6-Nw","name":"Gloria Espresso Bar & Cafe","city":"Toronto","latitude":43.6532229,"longitude":-79.4519268,"review_count":31,"categories":"Restaurants, Food, Coffee & Tea, Cafes"},{"business_id":"t-9HDrJq9KqUdZRJ1CvGyw","name":"Crave Healthy Habits","city":"Toronto","latitude":43.6474075,"longitude":-79.3840397,"review_count":15,"categories":"Restaurants, Salad, Vegetarian, Health Markets, Food, Gluten-Free, Specialty Food"},{"business_id":"x92zW5kEvGajc72sPYEBqg","name":"Cafe Iris","city":"Toronto","latitude":43.6702995,"longitude":-79.3901641,"review_count":3,"categories":"Restaurants, Cafes"},{"business_id":"0rA-1cy-dsrtZnAC4wMjkQ","name":"Nam Wan","city":"Toronto","latitude":43.6517657,"longitude":-79.4049646,"review_count":8,"categories":"Restaurants, Food Trucks, Thai, Food"},{"business_id":"RpcERS2lOcIjlGWvn9vJtA","name":"The Construction Site","city":"Toronto","latitude":43.7066550675,"longitude":-79.3987298012,"review_count":20,"categories":"Restaurants, Sandwiches"},{"business_id":"drNhiiDfuWAbuGcK3or8IA","name":"Moxie's Grill & Bar","city":"Toronto","latitude":43.6464472846,"longitude":-79.3843205981,"review_count":90,"categories":"Restaurants, Steakhouses, Cocktail Bars, Bars, American (Traditional), Nightlife, Canadian (New), Lounges"},{"business_id":"8PZGCtgG5MZKvz9i3B9gCA","name":"Eastern Twist","city":"Toronto","latitude":43.6829397,"longitude":-79.418491,"review_count":46,"categories":"Restaurants, Indian, Pakistani"},{"business_id":"BxkVct02QHybp54ATZgkUQ","name":"Jaipur Grille","city":"Toronto","latitude":43.7018826,"longitude":-79.3975397,"review_count":64,"categories":"Restaurants, Indian"},{"business_id":"sc9GaupuocNSScOm0J88aA","name":"Dr. Laffa","city":"Toronto","latitude":43.7181347,"longitude":-79.4291471,"review_count":47,"categories":"Restaurants, Falafel, Mediterranean, Kosher, Event Planning & Services, Middle Eastern, Caterers"},{"business_id":"8wpfZ3zJJ8LKO-z6C8hX-A","name":"Pennylicks Gourmet Cafe","city":"Toronto","latitude":43.6559277,"longitude":-79.4024678,"review_count":6,"categories":"Restaurants, Sandwiches, Food, Coffee & Tea, Desserts"},{"business_id":"IgZr5wCW4gZo51dOEiyNVw","name":"Calii Love","city":"Toronto","latitude":43.6453197,"longitude":-79.3804062,"review_count":3,"categories":"Restaurants, Food, Coffee & Tea, Breakfast & Brunch, Juice Bars & Smoothies, Salad, Vegetarian"},{"business_id":"IKYC89dNASgiPI6iIZj8Sw","name":"Lan Sushi","city":"Toronto","latitude":43.6920166,"longitude":-79.5315913,"review_count":77,"categories":"Restaurants, Japanese, Sushi Bars"},{"business_id":"Cu9fWbuFQKwVY13Spe5FiA","name":"Oriental Gourmet House","city":"Toronto","latitude":43.6509609,"longitude":-79.3793339,"review_count":8,"categories":"Restaurants, Chinese"},{"business_id":"h36qA5gnNTgByhxWx1aH-Q","name":"Rock Lobster Food Co","city":"Toronto","latitude":43.6466065,"longitude":-79.4198509,"review_count":142,"categories":"Restaurants, Seafood"},{"business_id":"c-N5b3LFflVwPwqwijVwSw","name":"Palm Lane","city":"Toronto","latitude":43.6715255,"longitude":-79.3945958,"review_count":6,"categories":"Restaurants, Caterers, Salad, Food, Juice Bars & Smoothies, Food Delivery Services, Event Planning & Services"},{"business_id":"8QwAWJJ1FtICnE266xISMQ","name":"Tzatziki","city":"Toronto","latitude":43.683965,"longitude":-79.346677,"review_count":62,"categories":"Restaurants, Greek"},{"business_id":"buR0c2eVJFOuDa21Y_OaDw","name":"The Fat Belgian Restaurant","city":"Toronto","latitude":43.64814,"longitude":-79.3901913,"review_count":6,"categories":"Restaurants, Modern European, Belgian"},{"business_id":"LE94B7yvaxh0l_wh_yEpjg","name":"Agave Y Aguacate","city":"Toronto","latitude":43.6558592,"longitude":-79.3934671,"review_count":36,"categories":"Restaurants, Mexican"},{"business_id":"TpnxeSIJQ_u11Xlm1VLQlg","name":"Mr Souvlaki","city":"Toronto","latitude":43.6474686,"longitude":-79.3839517,"review_count":3,"categories":"Restaurants, Greek"},{"business_id":"jdxde4eu6wdLZrUYxkYhfQ","name":"Picnic","city":"Toronto","latitude":43.6702026451,"longitude":-79.3862223074,"review_count":28,"categories":"Restaurants, Juice Bars & Smoothies, Canadian (New), Coffee & Tea, Food, Sandwiches"},{"business_id":"dWQIQe1JfqXG5Uxk5Yj5Gw","name":"Golden Shawarma","city":"Toronto","latitude":43.7751786,"longitude":-79.4140328,"review_count":6,"categories":"Restaurants, Persian\/Iranian, Fast Food"},{"business_id":"xk_ivpAc_ow6JrQC7gZaMQ","name":"Fresh Burger","city":"Toronto","latitude":43.7863224,"longitude":-79.4688943,"review_count":20,"categories":"Restaurants, Burgers"},{"business_id":"DitQU2Y-WONolisjxP-2nQ","name":"Pizza Pizza","city":"Toronto","latitude":43.6711886,"longitude":-79.3874048,"review_count":12,"categories":"Restaurants, Pizza, Italian, Chicken Wings"},{"business_id":"EEu0F38DozQCmhDkh9g6cw","name":"The Mill","city":"Toronto","latitude":43.7416624,"longitude":-79.3181436,"review_count":5,"categories":"Restaurants, Nightlife, American (Traditional), Comfort Food, Bars"},{"business_id":"eiNd9LfowUxCrFv-HILABg","name":"Mr Sub","city":"Toronto","latitude":43.6576462,"longitude":-79.3995655,"review_count":7,"categories":"Restaurants, Sandwiches"},{"business_id":"t5uxQVxvbyeM9y7DON7hOQ","name":"Amigos","city":"Toronto","latitude":43.7836647,"longitude":-79.1692766,"review_count":6,"categories":"Restaurants, Canadian (New)"},{"business_id":"d_QHsjv4aPh2BKiHgk_Dcg","name":"Japango Sushi & Noodle Restaurant","city":"Toronto","latitude":43.670671,"longitude":-79.2961793,"review_count":20,"categories":"Restaurants, Sushi Bars, Japanese"},{"business_id":"siaRCT2-PkyeXUVKrywcTg","name":"Niuda Hand-Pulled Noodles","city":"Toronto","latitude":43.650538,"longitude":-79.389065,"review_count":107,"categories":"Restaurants, Chinese, Noodles"},{"business_id":"A7waf6G3cvnLfAqKeLL8DA","name":"Buca","city":"Toronto","latitude":43.6445122,"longitude":-79.4003621,"review_count":422,"categories":"Restaurants, Italian"},{"business_id":"rxDQ7nTJifil7iHSdGxxSg","name":"Bob Coffee","city":"Toronto","latitude":43.6754021,"longitude":-79.4232882,"review_count":21,"categories":"Restaurants, Sandwiches, Cafes, Coffee & Tea, Nightlife, Food, Desserts, Bars"},{"business_id":"pWWOMySjSIhCBdmIXHePtg","name":"Ajimi Sushi","city":"Toronto","latitude":43.6986273,"longitude":-79.3971848,"review_count":14,"categories":"Restaurants, Sushi Bars"},{"business_id":"ijjuLKQ-h2esqrF7vnG-bw","name":"Pi Co","city":"Toronto","latitude":43.7051768,"longitude":-79.397814,"review_count":34,"categories":"Restaurants, Pizza"},{"business_id":"PGJd7yyMitAgYRRYvxxEHA","name":"Venezia Bakery","city":"Toronto","latitude":43.6467514,"longitude":-79.4199524,"review_count":86,"categories":"Restaurants, Bakeries, Food, Delis, Portuguese"},{"business_id":"QRGs0zVJ5NiNgMq3PwcefA","name":"Zhang's Kitchen","city":"Toronto","latitude":43.6575942832,"longitude":-79.3824705854,"review_count":4,"categories":"Restaurants, Chinese"},{"business_id":"WF067eOghIq5_TXrcEPTFw","name":"Pat's Homestyle Jamaican Restaurant","city":"Toronto","latitude":43.6475489,"longitude":-79.4031942,"review_count":84,"categories":"Restaurants, Caribbean, Food"},{"business_id":"cSqxtqsUGOyEA5ll5uA6kA","name":"Quiznos","city":"Toronto","latitude":43.6477751597,"longitude":-79.3760861508,"review_count":3,"categories":"Restaurants, Sandwiches, Fast Food"},{"business_id":"y4z0iQZWN4R2Fk8SiPQU5A","name":"Urban Hakka","city":"Toronto","latitude":43.7301910396,"longitude":-79.4033391774,"review_count":47,"categories":"Restaurants, Indian, Chinese, Hakka, Asian Fusion"},{"business_id":"fzQeUR_AvjpwIWjsMDAbGw","name":"Fat Bastard Burrito","city":"Toronto","latitude":43.6434322,"longitude":-79.4233441,"review_count":63,"categories":"Restaurants, Mexican"},{"business_id":"jpWqSZkUu8HccObeWLrgIA","name":"Pho Noodle Bar","city":"Toronto","latitude":43.6880626,"longitude":-79.3482863,"review_count":7,"categories":"Restaurants, Vietnamese, Thai"},{"business_id":"pU7L-CQpl4syUwfEGAlb8g","name":"Where the River Narrows","city":"Toronto","latitude":43.6771221,"longitude":-79.3040319,"review_count":14,"categories":"Restaurants, French, Indian"},{"business_id":"4FE9FM8uvn9CV76Bxfxogw","name":"T&T Roti Trinidad & Toronto Roti","city":"Toronto","latitude":43.6521961365,"longitude":-79.4055628113,"review_count":10,"categories":"Restaurants, Caribbean"},{"business_id":"O4ucsINTXLJaZ63XcWTsIw","name":"Super Kolbasa & Deli","city":"Toronto","latitude":43.641556,"longitude":-79.44705,"review_count":13,"categories":"Restaurants, Delis, Specialty Food, Cheese Shops, Food, Sandwiches, Polish"},{"business_id":"CmGiqR21BH7d6rsoBd-XSw","name":"Purple Onion Restaurant","city":"Toronto","latitude":43.6655814,"longitude":-79.4694409,"review_count":54,"categories":"Restaurants, Steakhouses, Diners, Breakfast & Brunch"},{"business_id":"HMdRgYAH68iJ7Xq54g13lQ","name":"Freshii","city":"Toronto","latitude":43.68576,"longitude":-79.620126,"review_count":31,"categories":"Restaurants, Ice Cream & Frozen Yogurt, Salad, Soup, Food"},{"business_id":"o7io7ITyHfjXOpxIktL0Bg","name":"Luce Restaurant","city":"Toronto","latitude":43.6430561,"longitude":-79.4068177,"review_count":22,"categories":"Restaurants, Salad, Tapas Bars, Pizza, Italian, Sandwiches"},{"business_id":"JOf872M0OWxX18qp9fTfAQ","name":"America","city":"Toronto","latitude":43.6495049,"longitude":-79.3799351,"review_count":79,"categories":"Restaurants, American (Traditional), Bars, Nightlife, Breakfast & Brunch, Canadian (New), Lounges"},{"business_id":"7HrCELR6uv2HkgL7aT_hcQ","name":"Chiado","city":"Toronto","latitude":43.6541868418,"longitude":-79.4242468866,"review_count":112,"categories":"Restaurants, Seafood, Portuguese"},{"business_id":"dm0I-SOqqla_IYHG27vtRg","name":"Shawarma Revolution","city":"Toronto","latitude":43.6587187,"longitude":-79.382272,"review_count":5,"categories":"Restaurants, Mediterranean, Middle Eastern, Canadian (New)"},{"business_id":"8uaB0-0EKnm6F8uqIMrBbw","name":"Red Swan Pizza","city":"Toronto","latitude":43.743401,"longitude":-79.2196054,"review_count":6,"categories":"Restaurants, Pizza"},{"business_id":"2jkJ7odjlDIvDqJf2dwzaA","name":"New East Garden","city":"Toronto","latitude":43.7076409,"longitude":-79.3023117,"review_count":13,"categories":"Restaurants, Chinese"},{"business_id":"4LXZzgsrM1ZyS_-uB9Od2Q","name":"Lil' Baci","city":"Toronto","latitude":43.6604776517,"longitude":-79.3432568465,"review_count":129,"categories":"Restaurants, Italian, Pizza"},{"business_id":"W6zJtBokhnJvpHlZbROBBQ","name":"McDonald's","city":"Toronto","latitude":43.6544382,"longitude":-79.3806994,"review_count":16,"categories":"Restaurants, Burgers, Breakfast & Brunch, Fast Food, Coffee & Tea, Food"},{"business_id":"7tVxrQKhAfkGK55bU_ObsA","name":"Avec Panache Restaurant","city":"Toronto","latitude":43.6656214,"longitude":-79.4734771,"review_count":4,"categories":"Restaurants, French, Mediterranean"},{"business_id":"ExrZIHEnesi-WH8t0iD-Uw","name":"Rasta Pasta","city":"Toronto","latitude":43.654787,"longitude":-79.4021369,"review_count":19,"categories":"Restaurants, Caribbean"},{"business_id":"HGWgviSrfGhodO79190OMA","name":"Uncle Smoke Cookhouse","city":"Toronto","latitude":43.6551712,"longitude":-79.4524461,"review_count":28,"categories":"Restaurants, Barbeque"},{"business_id":"1RFIVcZYV77tGIwVVGGClw","name":"More Than Pies","city":"Toronto","latitude":43.659328,"longitude":-79.4826374,"review_count":4,"categories":"Restaurants, Food, Cafes, Bakeries"},{"business_id":"oNZgQTBzazjS6JQBvmE_HA","name":"The Big Mouth Luck Dumpling House","city":"Toronto","latitude":43.6899078,"longitude":-79.3950245,"review_count":19,"categories":"Restaurants, Dim Sum, Chinese"},{"business_id":"W7Ua8ELRMm3IPd23fp7XjA","name":"Matsuda Japanese Cuisine","city":"Toronto","latitude":43.7454096,"longitude":-79.3465117,"review_count":245,"categories":"Restaurants, Japanese"},{"business_id":"ZmiX9I8BOEIImMVAkBKq4g","name":"Function Bar","city":"Toronto","latitude":43.7075497,"longitude":-79.398122,"review_count":10,"categories":"Restaurants, Bars, Food, Nightlife, Poutineries, Burgers, Pubs, Bakeries"},{"business_id":"JK_EaeYRYp3oCsc3gewuRQ","name":"Thai Express","city":"Toronto","latitude":43.6430006637,"longitude":-79.3833538451,"review_count":6,"categories":"Restaurants, Thai, Food Court"},{"business_id":"oJSa5HCiZXKLXxggQmecEQ","name":"Campagnolo","city":"Toronto","latitude":43.6517122,"longitude":-79.4094993,"review_count":216,"categories":"Restaurants, Tapas\/Small Plates, Italian"},{"business_id":"NPiVx-WKsuOEl1v0eWdxYg","name":"Sichuan Landscape Chinese Restaurant","city":"Toronto","latitude":43.6562516,"longitude":-79.3997354,"review_count":24,"categories":"Restaurants, Chinese"},{"business_id":"KMKZ2HK91lSySfs3C0a21Q","name":"Teappuccino","city":"Toronto","latitude":43.6644223,"longitude":-79.3993359,"review_count":5,"categories":"Restaurants, Food, Tea Rooms, Food Trucks, Coffee & Tea, Bubble Tea, Cafes"},{"business_id":"GPNm_RK-scF8q-6Esr21Cw","name":"Fast Fresh Foods","city":"Toronto","latitude":43.6578231609,"longitude":-79.3847149955,"review_count":8,"categories":"Restaurants, Salad, Sandwiches, Food"},{"business_id":"2KooqK40Nd80sgIPE2ScyA","name":"Sambuca Grill","city":"Toronto","latitude":43.6559258,"longitude":-79.3929262,"review_count":33,"categories":"Restaurants, Italian"},{"business_id":"PFCGI8QS8RzZFX_5ZSw7PA","name":"Nantha Caters","city":"Toronto","latitude":43.8271892,"longitude":-79.2909971,"review_count":6,"categories":"Restaurants, Sri Lankan, Indian"},{"business_id":"V0HFqgI1pidUghIqE09s-A","name":"Little Sito","city":"Toronto","latitude":43.6624826,"longitude":-79.4238902,"review_count":29,"categories":"Restaurants, Middle Eastern, Lebanese, Vegan"},{"business_id":"_L5M_qDbdfpy6ryCDJjlmg","name":"Dounia Restaurant","city":"Toronto","latitude":43.754713,"longitude":-79.298538,"review_count":3,"categories":"Restaurants, Middle Eastern, Lebanese"},{"business_id":"QnVZwjV7iSAaG4VN9FvXQg","name":"Swiss Chalet Rotisserie & Grill","city":"Toronto","latitude":43.6489768,"longitude":-79.382409,"review_count":3,"categories":"Restaurants, Comfort Food, Food, American (Traditional), Canadian (New)"},{"business_id":"3YKV1eralyrKQqoWOTJMDA","name":"Giulietta","city":"Toronto","latitude":43.6535007,"longitude":-79.427609,"review_count":79,"categories":"Restaurants, Italian"},{"business_id":"Q8uwArm4h8bhsqxw84Gd8w","name":"Charcoal Kebab House","city":"Toronto","latitude":43.7574863314,"longitude":-79.2389628579,"review_count":67,"categories":"Restaurants, Halal, Indian, Asian Fusion, Chinese, Kebab"},{"business_id":"VBMJjX1rPuwVvzTApRJZAA","name":"Hot Pot Restaurant","city":"Toronto","latitude":43.6974669682,"longitude":-79.4413521141,"review_count":19,"categories":"Restaurants, Caribbean, Food"},{"business_id":"uPa5hrWmHm0n1l4MSyVMGQ","name":"Aloette","city":"Toronto","latitude":43.6485391,"longitude":-79.3959372,"review_count":213,"categories":"Restaurants, Diners, French, Bistros"},{"business_id":"sHUFwooKWk5NcbmVdCub3g","name":"Rollipub","city":"Toronto","latitude":43.6552619,"longitude":-79.4141425,"review_count":9,"categories":"Restaurants, Pizza, Asian Fusion, Sushi Bars"},{"business_id":"gy5pr5bFAjOL5rERSdMCLg","name":"The Keg Steakhouse + Bar","city":"Toronto","latitude":43.6499945,"longitude":-79.3839517,"review_count":261,"categories":"Restaurants, Nightlife, Steakhouses, Bars, Seafood"},{"business_id":"AfQjI9Wbu6_Hzy2b3e7JLw","name":"Cafe On the Square","city":"Toronto","latitude":43.653067,"longitude":-79.384058,"review_count":18,"categories":"Restaurants, Coffee & Tea, Breakfast & Brunch, Food"},{"business_id":"idvoDSvcLBjlyOY3TMix9A","name":"Vintage Thai","city":"Toronto","latitude":43.6445955163,"longitude":-79.5226904377,"review_count":7,"categories":"Restaurants, Thai"},{"business_id":"QEKDNfkK1Dx32m0Quv5WZQ","name":"Tasty Falafel","city":"Toronto","latitude":43.649709,"longitude":-79.4837688,"review_count":13,"categories":"Restaurants, Middle Eastern, Halal, Lebanese, Mediterranean, Falafel"},{"business_id":"s2VCc-MhUURSn1tWBPVunA","name":"The Cereal Bar","city":"Toronto","latitude":43.648234,"longitude":-79.379523,"review_count":11,"categories":"Restaurants, Vegetarian, Breakfast & Brunch, Gluten-Free"},{"business_id":"TWt-6EilZoSH99CheLPD2A","name":"Hey!","city":"Toronto","latitude":43.6416889,"longitude":-79.4471373,"review_count":38,"categories":"Restaurants, Italian, Breakfast & Brunch"},{"business_id":"tf4FoM-A_I469qTUbLZs5Q","name":"M Square Coffee Co","city":"Toronto","latitude":43.651134,"longitude":-79.383527,"review_count":49,"categories":"Restaurants, Specialty Food, Cafes, Coffee & Tea, Food"},{"business_id":"cpb2cWZZDiPQTWS8BbmyZw","name":"Pizza Pizza","city":"Toronto","latitude":43.6896094,"longitude":-79.3944095,"review_count":3,"categories":"Restaurants, Pizza, Italian, Chicken Wings"},{"business_id":"gYxnLUnjSEYBduLeYETirA","name":"Bu Jian Bu San Restaurant","city":"Toronto","latitude":43.8059059,"longitude":-79.2878933,"review_count":3,"categories":"Restaurants, Chinese"},{"business_id":"OZN43HzSTJVKBAKXmXxAjw","name":"Bunny's","city":"Toronto","latitude":43.6607361,"longitude":-79.3423123,"review_count":38,"categories":"Restaurants, Cocktail Bars, Nightlife, Bars, Breakfast & Brunch, Canadian (New)"},{"business_id":"Z0_qLqeFwOQGhBd_aC9s6w","name":"Hakka Cottage","city":"Toronto","latitude":43.7137919,"longitude":-79.5592962,"review_count":22,"categories":"Restaurants, Chinese, Halal"},{"business_id":"IflW1yOEcNQrB2SWxHKoSg","name":"The Poet Cafe","city":"Toronto","latitude":43.6504042,"longitude":-79.3711469,"review_count":44,"categories":"Restaurants, Food, Cafes, Tapas\/Small Plates, Coffee & Tea"},{"business_id":"qLEShJZktG253dxYTG5jYA","name":"Bombay Express","city":"Toronto","latitude":43.6644546,"longitude":-79.3802563,"review_count":4,"categories":"Restaurants, Indian"},{"business_id":"q_8XJkJ3U7-pRUU-Ga61uA","name":"Bikkuri Japanese","city":"Toronto","latitude":43.6568494,"longitude":-79.4061167,"review_count":18,"categories":"Restaurants, Japanese"},{"business_id":"XmP-EGWvru9jDvaVbG3bjg","name":"Lob Toronto","city":"Toronto","latitude":43.658826,"longitude":-79.3496327,"review_count":19,"categories":"Restaurants, Bars, Event Planning & Services, Nightlife, Pubs, Bocce Ball, Active Life, Venues & Event Spaces"},{"business_id":"J8ehGrOQvdUr_CS73uxfGw","name":"Wikki Hut","city":"Toronto","latitude":43.6495171,"longitude":-79.3796355,"review_count":7,"categories":"Restaurants, Chinese"},{"business_id":"vnIdWzIB2W4j9cDcd6tHAQ","name":"La Rev","city":"Toronto","latitude":43.665604,"longitude":-79.4642799,"review_count":53,"categories":"Restaurants, Mexican"},{"business_id":"Io1WmI1cUc8QaUVxSx1KuA","name":"Perola Supermarket","city":"Toronto","latitude":43.6549426,"longitude":-79.40196,"review_count":14,"categories":"Restaurants, Food, Grocery, Latin American"},{"business_id":"6KUPnYqFBhZHzUFLqOpbaA","name":"Hanabi Sushi","city":"Toronto","latitude":43.804481,"longitude":-79.28846,"review_count":62,"categories":"Restaurants, Japanese"},{"business_id":"kYli-nDMENotoxZonriBLA","name":"Mi-Ne Sushi","city":"Toronto","latitude":43.6405181122,"longitude":-79.3908636901,"review_count":151,"categories":"Restaurants, Japanese"},{"business_id":"euPGrIZXNhkbNDJe5U5Q1Q","name":"Druxy's Famous Deli","city":"Toronto","latitude":43.6581169,"longitude":-79.3907253,"review_count":9,"categories":"Restaurants, Breakfast & Brunch, Delis, Caterers, Event Planning & Services, Sandwiches"},{"business_id":"eOXoQvgHyYLaqcpRxRUlTA","name":"Wing Machine","city":"Toronto","latitude":43.6654235,"longitude":-79.4107791,"review_count":7,"categories":"Restaurants, Chicken Wings"},{"business_id":"pNlCFEtmyrGMX6dfbPoaXg","name":"Mochica","city":"Toronto","latitude":43.655338,"longitude":-79.4147095,"review_count":25,"categories":"Restaurants, Peruvian"},{"business_id":"Y7pvJRbQwxByoZA3CI0ABQ","name":"Raging Spoon","city":"Toronto","latitude":43.6463262,"longitude":-79.4078193,"review_count":3,"categories":"Restaurants, Caterers, Event Planning & Services"},{"business_id":"UrOFpcqH8Lixb2hpeJlX2Q","name":"The Signature Kitchen","city":"Toronto","latitude":43.6831128,"longitude":-79.3248315,"review_count":19,"categories":"Restaurants, Sushi Bars"},{"business_id":"dH5tXaMTuyWQ21z53OeqbA","name":"Chipotle Mexican Grill","city":"Toronto","latitude":43.6495367,"longitude":-79.391638,"review_count":9,"categories":"Restaurants, Mexican, Fast Food"},{"business_id":"S8H-VShWsIUqyPoqI5Rvbw","name":"Zupa's Restaurant & Deli","city":"Toronto","latitude":43.6473873,"longitude":-79.393122,"review_count":22,"categories":"Restaurants, Delis, Sandwiches"},{"business_id":"dKVwC-UJDFzfOci3xDs0jQ","name":"Spring Rolls Delivery","city":"Toronto","latitude":43.6500615,"longitude":-79.3906491,"review_count":7,"categories":"Restaurants, Chinese, Thai, Asian Fusion"},{"business_id":"Zuwzb89m5JfOGyPgknSbCQ","name":"Cafe Cinquecento","city":"Toronto","latitude":43.6429425,"longitude":-79.4067972,"review_count":9,"categories":"Restaurants, Italian"},{"business_id":"ZTBAuu455gxqwMOe1OgA6g","name":"1903 A Harley-Davidson Caf\u00e9","city":"Toronto","latitude":43.6463359,"longitude":-79.4196426,"review_count":6,"categories":"Restaurants, Cafes"},{"business_id":"tvOpzkdr0yYdjqveyoPIKg","name":"Scaccia","city":"Toronto","latitude":43.6450118465,"longitude":-79.3804140016,"review_count":3,"categories":"Restaurants, Italian"},{"business_id":"7VShkfLFDaTngFMd8fl5Rw","name":"Bigman\u2019s Pizza","city":"Toronto","latitude":43.704378,"longitude":-79.375025,"review_count":25,"categories":"Restaurants, Pizza"},{"business_id":"-0aOudcaAyac0VJbMX-L1g","name":"Express Pizza & Grill","city":"Toronto","latitude":43.7732379,"longitude":-79.4426406,"review_count":15,"categories":"Restaurants, Middle Eastern, Pizza"},{"business_id":"Mwl79jLlxPQabA3yiSPz0A","name":"Canton Rice Noodle","city":"Toronto","latitude":43.7978023137,"longitude":-79.2708323523,"review_count":9,"categories":"Restaurants, Specialty Food, Food, Chinese, Comfort Food"},{"business_id":"2GmBEeMQ88t03LlAlSHBGw","name":"Morellina\u2019s","city":"Toronto","latitude":43.6672495043,"longitude":-79.4199987906,"review_count":3,"categories":"Restaurants, Cafes, Sandwiches, Breakfast & Brunch"},{"business_id":"SrnFpeMfMB40Rd6Z9N1lbg","name":"Home Sweet Home","city":"Toronto","latitude":43.7552182,"longitude":-79.4685428,"review_count":9,"categories":"Restaurants, Mediterranean, Turkish, Halal"},{"business_id":"5TaPg1Pakpaesn6RtKP5FQ","name":"Subway","city":"Toronto","latitude":43.700782,"longitude":-79.511639,"review_count":3,"categories":"Restaurants, Sandwiches, Fast Food"},{"business_id":"ORyR5StmKX5HjvFEV1oBXQ","name":"Red Lobster","city":"Toronto","latitude":43.7187157,"longitude":-79.4563123,"review_count":48,"categories":"Restaurants, American (Traditional), Seafood"},{"business_id":"SBGpvzjfo9BdAtiSlxOnTQ","name":"Croutons","city":"Toronto","latitude":43.663206,"longitude":-79.4025843,"review_count":6,"categories":"Restaurants, Mediterranean"},{"business_id":"C4X26YL0fNu5CuW8Flyo0g","name":"Cr\u00e8me et Miel","city":"Toronto","latitude":43.7452544141,"longitude":-79.2933233245,"review_count":7,"categories":"Restaurants, Juice Bars & Smoothies, Lebanese, Coffee & Tea, Food, Patisserie\/Cake Shop, Middle Eastern"},{"business_id":"ZPzTAMuJKVvrVUPF28WnIQ","name":"5 Spice Dining","city":"Toronto","latitude":43.8233758093,"longitude":-79.248042294,"review_count":21,"categories":"Restaurants, Pan Asian, Indian, Sri Lankan"},{"business_id":"tE9kJ5BWc7kecHuZ8ObDmQ","name":"Jerk So Good","city":"Toronto","latitude":43.7396482,"longitude":-79.5390491,"review_count":5,"categories":"Restaurants, Caribbean"},{"business_id":"hsOUkalNvcB7iyu-bA3HAw","name":"Butter Chicken Roti","city":"Toronto","latitude":43.6508599,"longitude":-79.3696675,"review_count":27,"categories":"Restaurants, Indian"},{"business_id":"UnvtHKeRBWe2IAw0-JG_zA","name":"Stadt Cafe","city":"Toronto","latitude":43.6653359,"longitude":-79.4695715,"review_count":22,"categories":"Restaurants, Food, Gluten-Free, International, German, Tapas\/Small Plates, Breakfast & Brunch, Cafes, Desserts, Bars, Nightlife, Beer Bar"},{"business_id":"1YNfwe0liq2afvbNQT0LSA","name":"Mi Tierra Restaurant","city":"Toronto","latitude":43.6807553,"longitude":-79.4310955,"review_count":36,"categories":"Restaurants, Latin American"},{"business_id":"MW1vK27V6fqOPbJcRnttsQ","name":"New May Hong Yuen BBQ","city":"Toronto","latitude":43.822398,"longitude":-79.275451,"review_count":4,"categories":"Restaurants, Chinese, Barbeque"},{"business_id":"Ryqmm5vXHmSscZjzQQkyxQ","name":"La Mexicana","city":"Toronto","latitude":43.6715146,"longitude":-79.3874234,"review_count":48,"categories":"Restaurants, Mexican"},{"business_id":"jS6i--1iVudrIZNhKrG6-Q","name":"L-eat Express Cafe","city":"Toronto","latitude":43.6466453,"longitude":-79.3967258,"review_count":17,"categories":"Restaurants, Cafes, Pizza, Italian"},{"business_id":"qlXdy9_ooUh0XPi8zVfrHA","name":"est Restaurant","city":"Toronto","latitude":43.6589329977,"longitude":-79.3490209814,"review_count":6,"categories":"Restaurants, Local Flavor, Tapas\/Small Plates, Cocktail Bars, Vegan, Bars, Nightlife, Canadian (New)"},{"business_id":"wQ9_9QDNw3OPUo55sJUr9A","name":"Loving Hut","city":"Toronto","latitude":43.648187,"longitude":-79.396566,"review_count":62,"categories":"Restaurants, Vegan, Asian Fusion"},{"business_id":"rexgHmK0Mvl5l7erXr0zrA","name":"Royal Noodles","city":"Toronto","latitude":43.6770666683,"longitude":-79.4951190054,"review_count":5,"categories":"Restaurants, Vegetarian, Noodles, Vietnamese"},{"business_id":"vcdgxeTfjFW9SXJmuUVOOg","name":"Beer Batter Fish' N Chips","city":"Toronto","latitude":43.6638048387,"longitude":-79.3705035746,"review_count":23,"categories":"Restaurants, Fish & Chips"},{"business_id":"vtq4qWljP-I6owRvihQNsQ","name":"Greek & Co","city":"Toronto","latitude":43.6446473,"longitude":-79.3982984,"review_count":25,"categories":"Restaurants, Greek"},{"business_id":"6KBxEJcT46Ti14Az9Pc9Bg","name":"Loco Hot Pot","city":"Toronto","latitude":43.785073806,"longitude":-79.4160391018,"review_count":5,"categories":"Restaurants, Chinese, Hot Pot"},{"business_id":"9edQvMDnFQz1--MnDtT88w","name":"Yorkville Espresso Bar","city":"Toronto","latitude":43.6718228,"longitude":-79.3877037,"review_count":18,"categories":"Restaurants, Italian, Food, Coffee & Tea, Cafes"},{"business_id":"FMLJ7orzQQwWxfgeqrvlCQ","name":"Fancy Franks","city":"Toronto","latitude":43.6484153,"longitude":-79.3969927,"review_count":69,"categories":"Restaurants, Food, Burgers, Fast Food, Hot Dogs"},{"business_id":"zwlgRmJxWkeWUMyLcdJjAg","name":"Crepe de licious","city":"Toronto","latitude":43.6569658,"longitude":-79.380484,"review_count":3,"categories":"Restaurants, Creperies"},{"business_id":"YFEwCxc-9WRRVGgRv_-p7Q","name":"Mcramyun","city":"Toronto","latitude":43.6562329,"longitude":-79.3923184,"review_count":25,"categories":"Restaurants, Ramen, Korean, Japanese, Asian Fusion"},{"business_id":"V65Ffj_EDwOn75WcknbUdg","name":"Amaya Express","city":"Toronto","latitude":43.725686467,"longitude":-79.4504406158,"review_count":45,"categories":"Restaurants, Indian"},{"business_id":"CotnZvwxCubcWqsG2hK0gw","name":"Perla Restaurant","city":"Toronto","latitude":43.6554828,"longitude":-79.4115051,"review_count":15,"categories":"Restaurants, Portuguese"},{"business_id":"4kDLEb1OgE7IrO54lCkn3A","name":"Cocina Economica","city":"Toronto","latitude":43.6549273753,"longitude":-79.3654748869,"review_count":163,"categories":"Restaurants, Latin American, Mexican"},{"business_id":"OnPIMIqsfdxvV0nm0CTq7g","name":"Ur Eggcellent Grill","city":"Toronto","latitude":43.7745629,"longitude":-79.1772099,"review_count":4,"categories":"Restaurants, Breakfast & Brunch"},{"business_id":"hJda5g5v_2rT3D-3mSf7cQ","name":"Tequila Sun Rise Cantina & Grill","city":"Toronto","latitude":43.6485947,"longitude":-79.3874525,"review_count":12,"categories":"Restaurants, Mexican, Food, Specialty Food"},{"business_id":"ShUh_MMkaVp_KXCtNjPvXA","name":"Universal Grill","city":"Toronto","latitude":43.6705211033,"longitude":-79.4264404405,"review_count":59,"categories":"Restaurants, American (Traditional), Breakfast & Brunch, Canadian (New), American (New)"},{"business_id":"dW6QOIAJI5J1jTcpo2HdzA","name":"Silver Lychee Restaurant","city":"Toronto","latitude":43.7898589223,"longitude":-79.3029233734,"review_count":20,"categories":"Restaurants, Dim Sum, Cantonese, Chinese"},{"business_id":"0JqPI6mv7xHloURlf0L4Mg","name":"Thai On Yonge","city":"Toronto","latitude":43.65855,"longitude":-79.382072,"review_count":123,"categories":"Restaurants, Specialty Food, Food, Ethnic Food, Food Delivery Services, Thai, Vegetarian"},{"business_id":"w7DEm_2Gj_xF0qeRdbZn3A","name":"Crazy Don","city":"Toronto","latitude":43.7699835675,"longitude":-79.4127663751,"review_count":99,"categories":"Restaurants, Korean, Japanese"},{"business_id":"jzveTy7ogH7cg9axZ78ENg","name":"Bar Koyoi Restaurant North York","city":"Toronto","latitude":43.7749233,"longitude":-79.4142464,"review_count":14,"categories":"Restaurants, Japanese"},{"business_id":"WGmMEWmievG-DqD_Ix5KMg","name":"Pisco","city":"Toronto","latitude":43.7290624,"longitude":-79.4030983,"review_count":13,"categories":"Restaurants, Latin American, Peruvian, Canadian (New)"},{"business_id":"9cvNWTKOXRrJDcf8LphP-A","name":"Big Bite Burgers","city":"Toronto","latitude":43.7003224,"longitude":-79.4295168,"review_count":6,"categories":"Restaurants, Burgers"},{"business_id":"Rgq9dnua_aM9jlNSodKj7Q","name":"Antikka - cafe & records","city":"Toronto","latitude":43.6447348,"longitude":-79.4170728,"review_count":15,"categories":"Restaurants, Shopping, Books, Mags, Music & Video, Venues & Event Spaces, Cafes, Vinyl Records, Event Planning & Services"},{"business_id":"9AL4hi703k6vDZ1sE3Zeew","name":"Shi Miao Dao","city":"Toronto","latitude":43.8142832,"longitude":-79.2947133,"review_count":7,"categories":"Restaurants, Chinese"},{"business_id":"3bd5LGDc0v782OlAWU3R1Q","name":"Pho Dau Bo","city":"Toronto","latitude":43.7610656,"longitude":-79.2252895,"review_count":42,"categories":"Restaurants, Vietnamese"},{"business_id":"qhUSOEBEmHobLLwIBAW5Ng","name":"Don Alfonso 1890","city":"Toronto","latitude":43.6504806,"longitude":-79.3760778,"review_count":32,"categories":"Restaurants, Italian"},{"business_id":"Qlyo-9TXmyRgXolptGGM2Q","name":"Sammy's Student Exchange","city":"Toronto","latitude":43.6639483,"longitude":-79.3941405,"review_count":18,"categories":"Restaurants, Mediterranean"},{"business_id":"HLFQ_sFvm-sWPN-xO1N-Qw","name":"Shopsy's Deli & Restaurants","city":"Toronto","latitude":43.6233782669,"longitude":-79.3785917759,"review_count":5,"categories":"Restaurants, Delis"},{"business_id":"kZh-0f291AiayMgs1EqwIQ","name":"Hot Shawarma","city":"Toronto","latitude":43.6425668,"longitude":-79.427059,"review_count":16,"categories":"Restaurants, Mediterranean"},{"business_id":"TGuRNZByAQYhejFfAAbD1A","name":"The Friendly Thai","city":"Toronto","latitude":43.6656661,"longitude":-79.4704944,"review_count":51,"categories":"Restaurants, Thai"},{"business_id":"LcvYvogGv-VBZvV57HhY5Q","name":"Mnandi Pies","city":"Toronto","latitude":43.6521127399,"longitude":-79.4046432429,"review_count":4,"categories":"Restaurants, South African, Food Stands, African"},{"business_id":"EPyQTlCDyqlufVg_yfZ9fA","name":"Popeyes Louisiana Kitchen","city":"Toronto","latitude":43.6890306,"longitude":-79.2973961,"review_count":10,"categories":"Restaurants, Fast Food, Chicken Wings"},{"business_id":"2Wzet4CPV0glZYXqFGyqyg","name":"Courtyard Restaurant","city":"Toronto","latitude":43.6705763,"longitude":-79.393082,"review_count":5,"categories":"Restaurants, Hungarian"},{"business_id":"GFefOKzqRcUs_HzgpZbdAA","name":"Chester Fried Chicken Express","city":"Toronto","latitude":43.653226,"longitude":-79.3831843,"review_count":4,"categories":"Restaurants, Chicken Wings"},{"business_id":"PUKOr5bEI87TVHjwijT1xw","name":"Bio Cafe","city":"Toronto","latitude":43.7310425,"longitude":-79.4040031,"review_count":8,"categories":"Restaurants, Korean, Cafes"},{"business_id":"GWRGhxUKHRQ6KorbCWU6KA","name":"Yuki Japanese","city":"Toronto","latitude":43.6669396,"longitude":-79.4032055,"review_count":20,"categories":"Restaurants, Japanese"},{"business_id":"ZcDfZzTQCEKQE2tv9jnd3Q","name":"Kome Sushi & Sake House","city":"Toronto","latitude":43.6804124,"longitude":-79.4307415,"review_count":15,"categories":"Restaurants, Sushi Bars"},{"business_id":"LfQrDmEbdzqQiBg6J-cJqw","name":"Hazel's Diner","city":"Toronto","latitude":43.7021241,"longitude":-79.3874506,"review_count":43,"categories":"Restaurants, Diners, Breakfast & Brunch"},{"business_id":"qmLtSxV25iQOYUlqTAdD-Q","name":"OMG Baked Goodness","city":"Toronto","latitude":43.6420505702,"longitude":-79.4234097979,"review_count":11,"categories":"Restaurants, Food, Bakeries, Cafes"},{"business_id":"x8FvQ9yFiPZYOQuRv9PV_Q","name":"Zocalo","city":"Toronto","latitude":43.6582695803,"longitude":-79.4424950704,"review_count":10,"categories":"Restaurants, Mexican"},{"business_id":"vNorXQri-4CGVdND6PTplQ","name":"Thai Express","city":"Toronto","latitude":43.7192425767,"longitude":-79.5993315452,"review_count":3,"categories":"Restaurants, Thai"},{"business_id":"ifRadEJatro2aQWaQH4kAw","name":"Maggie's","city":"Toronto","latitude":43.6568123,"longitude":-79.4059771,"review_count":31,"categories":"Restaurants, Breakfast & Brunch"},{"business_id":"f0v4S0q6Dlf_OQILazIyuw","name":"Konjiki Ramen Downtown","city":"Toronto","latitude":43.6573168,"longitude":-79.3836382,"review_count":71,"categories":"Restaurants, Japanese, Ramen"},{"business_id":"U5zf1i_WzinhXLZH7X-N-Q","name":"J-Time Sushi","city":"Toronto","latitude":43.6660632,"longitude":-79.4071762,"review_count":7,"categories":"Restaurants, Sushi Bars"},{"business_id":"yx09NEtQQ5RGuS1hadd5qA","name":"Ritz Caribbean Foods","city":"Toronto","latitude":43.6907493385,"longitude":-79.2890505865,"review_count":20,"categories":"Restaurants, Caribbean, Desserts, Food, Seafood"},{"business_id":"LCdup008tn_xUi7rvFK7QA","name":"A&W","city":"Toronto","latitude":43.660472,"longitude":-79.378561,"review_count":7,"categories":"Restaurants, Breakfast & Brunch, Burgers"},{"business_id":"FJzOM4aF4y3XcX0N6zoORA","name":"Yasi's Place","city":"Toronto","latitude":43.6614656,"longitude":-79.4483868,"review_count":17,"categories":"Restaurants, Diners, Breakfast & Brunch"},{"business_id":"yxmpQfqKDeLnSJj9dpxZ6A","name":"Caledonia Bakery & Pastry","city":"Toronto","latitude":43.6756174105,"longitude":-79.454568349,"review_count":8,"categories":"Restaurants, Portuguese, Food, Patisserie\/Cake Shop, Bakeries, Cafes"},{"business_id":"NwQeXa7pOtQ8YZYrrzorfg","name":"Retro Burger","city":"Toronto","latitude":43.6876773,"longitude":-79.3942628,"review_count":8,"categories":"Restaurants, Burgers"},{"business_id":"RsSXhZnhKsH79uAMbxg9mA","name":"Airport Gate Cafe & Grill","city":"Toronto","latitude":43.6874116629,"longitude":-79.5966811449,"review_count":17,"categories":"Restaurants, American (Traditional), Breakfast & Brunch, Diners"},{"business_id":"3U2xuNVUApXMCvFmp59GYw","name":"Naturally Yours Health Food and Vegetarian Gourmet","city":"Toronto","latitude":43.6486362,"longitude":-79.3817439,"review_count":19,"categories":"Restaurants, Food, Vegetarian, Specialty Food"},{"business_id":"rhyjGfqYlCJoi8Zeulg6QA","name":"Kimchi Korea House","city":"Toronto","latitude":43.6552564,"longitude":-79.3854753,"review_count":260,"categories":"Restaurants, Korean"},{"business_id":"kQcE30-HWjbVCJQm8HDSBQ","name":"kibo sushi house","city":"Toronto","latitude":43.6544115677,"longitude":-79.4229689082,"review_count":7,"categories":"Restaurants, Sushi Bars, Japanese"},{"business_id":"t2eQcHc7WIlyKK8zFtY2Kw","name":"Quesada Burritos & Tacos","city":"Toronto","latitude":43.6453248,"longitude":-79.3898137,"review_count":35,"categories":"Restaurants, Mexican"},{"business_id":"kVuJH7wGrhgmCz3LI4uL3Q","name":"Ho-Shim Japanese & Korean Restaurant & Take Out","city":"Toronto","latitude":43.6486362,"longitude":-79.3817439,"review_count":18,"categories":"Restaurants, Japanese, Korean"},{"business_id":"0GmQjd_LXUyKXD_utcLuPA","name":"Imagine Noodle","city":"Toronto","latitude":43.8228188222,"longitude":-79.3008436317,"review_count":5,"categories":"Restaurants, Chinese"},{"business_id":"a3eIsiMkhHx-EVS0k1DT3A","name":"Crave Healthy Habits","city":"Toronto","latitude":43.6449355,"longitude":-79.386151,"review_count":4,"categories":"Restaurants, Breakfast & Brunch"},{"business_id":"mYzlPKXvOVRrQivHnDqD5g","name":"YamChops","city":"Toronto","latitude":43.6550692606,"longitude":-79.4182143631,"review_count":49,"categories":"Restaurants, Butcher, Vegetarian, Vegan, Food, Juice Bars & Smoothies"},{"business_id":"J_btDyZbIv0hZNjrw56zlA","name":"New Sky Restaurant","city":"Toronto","latitude":43.6554303,"longitude":-79.398664,"review_count":111,"categories":"Restaurants, Chinese, Peruvian, Specialty Food, Food, Ethnic Food"},{"business_id":"WIzYDpD5JlSsqaw2QTuFFw","name":"Globally Local","city":"Toronto","latitude":43.6563501868,"longitude":-79.4096903929,"review_count":14,"categories":"Restaurants, Vegan"},{"business_id":"PmDhZiyiHI6O3RJXXojJcA","name":"Pizza Pizza","city":"Toronto","latitude":43.7248400041,"longitude":-79.28991885,"review_count":3,"categories":"Restaurants, Pizza"},{"business_id":"L3yqbETHG6F7jt9kIOyDfw","name":"Pete's Open Kitchen","city":"Toronto","latitude":43.6570248,"longitude":-79.3586517,"review_count":9,"categories":"Restaurants, Diners, Burgers, Breakfast & Brunch"},{"business_id":"O0zyXuEw_aojAK5ILW6WJA","name":"New Northern Dumplings","city":"Toronto","latitude":43.8219517,"longitude":-79.2984027,"review_count":67,"categories":"Restaurants, Chinese"},{"business_id":"bSLIrhdxrxuz3p_nz1iLpg","name":"The One Eighty","city":"Toronto","latitude":43.668736,"longitude":-79.388207,"review_count":118,"categories":"Restaurants, Event Planning & Services, American (Traditional), Nightlife, Venues & Event Spaces, Bars, Canadian (New), Lounges"},{"business_id":"JB8-8TtNYX-vLqN7cz-zHA","name":"Zeal Burgers","city":"Toronto","latitude":43.7003564126,"longitude":-79.5175241744,"review_count":103,"categories":"Restaurants, Burgers"},{"business_id":"HSPMT3m9OOD4ypMO4wwOdg","name":"Fresh On Front","city":"Toronto","latitude":43.6477534,"longitude":-79.374274,"review_count":64,"categories":"Restaurants, Vegetarian, Coffee & Tea, Juice Bars & Smoothies, Food, Vegan"},{"business_id":"vOdY5xomz8nNX756zNYQxQ","name":"Real Fruit Bubble Tea","city":"Toronto","latitude":43.7580789614,"longitude":-79.3132716045,"review_count":5,"categories":"Restaurants, Taiwanese, Food, Bubble Tea, Coffee & Tea"},{"business_id":"KXXdrkLLl03evqeJZ9lV2Q","name":"Durbar Indian Cuisine","city":"Toronto","latitude":43.6489129,"longitude":-79.484799,"review_count":10,"categories":"Restaurants, Indian"},{"business_id":"a23aElEgvCFhxdtqdzh7bg","name":"Bow Thai Restaurant","city":"Toronto","latitude":43.6698968,"longitude":-79.3015456,"review_count":7,"categories":"Restaurants, Thai"},{"business_id":"WHfgo788tdCywQbgG04rDA","name":"Axis Gallery & Grill","city":"Toronto","latitude":43.6655864,"longitude":-79.4708382,"review_count":35,"categories":"Restaurants, Arts & Entertainment, Gastropubs, Pubs, Art Galleries, Shopping, Nightlife, Bars"},{"business_id":"ZyOuwa3Eau6dbUiEPwsUoA","name":"Katsuya","city":"Toronto","latitude":43.787399,"longitude":-79.2670943,"review_count":119,"categories":"Restaurants, Japanese"},{"business_id":"PkIRnmb6Fkf9Jv6pEct7Dw","name":"Jodys Sundays & Deli","city":"Toronto","latitude":43.7243991,"longitude":-79.285819,"review_count":5,"categories":"Restaurants, Delis"},{"business_id":"fjta0a2h-LYWOWBgJGVpwg","name":"Thai Shan Inn","city":"Toronto","latitude":43.6969621382,"longitude":-79.4510810184,"review_count":29,"categories":"Restaurants, Thai"},{"business_id":"Sjgnbhp6arQUM7_7TOzByw","name":"Iron Rooster","city":"Toronto","latitude":43.6558613,"longitude":-79.3988974,"review_count":4,"categories":"Restaurants, Chicken Wings, Burgers, Fast Food"},{"business_id":"pSTQPnaee7euEULfDgIDdg","name":"Yummy Garden","city":"Toronto","latitude":43.7224834,"longitude":-79.3020196,"review_count":22,"categories":"Restaurants, Thai, Malaysian, Chinese"},{"business_id":"Q2sfvKRIByuP0p7Vwgnt7A","name":"Sing Sing Barbeque House","city":"Toronto","latitude":43.6651176,"longitude":-79.3523245,"review_count":3,"categories":"Restaurants, Barbeque"},{"business_id":"wVnvWvuS7ZZMQwW8uQEcmg","name":"Oishii Japanese Restaurant & Bar","city":"Toronto","latitude":43.6658678,"longitude":-79.3811324,"review_count":8,"categories":"Restaurants, Japanese, Food"},{"business_id":"iS44aNB5h7bkAV3dzm9Fgw","name":"Babur Restaurant","city":"Toronto","latitude":43.6500708,"longitude":-79.3897477,"review_count":52,"categories":"Restaurants, Indian"},{"business_id":"hmXrKXhcD2n2s6fmb2wRFg","name":"Aldo's Restaurant Peruvian Food","city":"Toronto","latitude":43.7515877876,"longitude":-79.5266440138,"review_count":8,"categories":"Restaurants, Peruvian, Buffets"},{"business_id":"SmizR7MLt-558FJJQRBBoQ","name":"earth Bloor West","city":"Toronto","latitude":43.649365,"longitude":-79.483711,"review_count":22,"categories":"Restaurants, American (New), Local Flavor, Canadian (New)"},{"business_id":"LtPyB3XcPUqrXAJ4qK9o0g","name":"The New Caribbean Queen Jerk Drum","city":"Toronto","latitude":43.7498835,"longitude":-79.5419598,"review_count":7,"categories":"Restaurants, Caribbean"},{"business_id":"a-Mo7Ipu_c5y21mmg0-F7g","name":"Agio","city":"Toronto","latitude":43.676092,"longitude":-79.4507311,"review_count":168,"categories":"Restaurants, Italian, Food"},{"business_id":"p6mnPa2-__9ttPTIfecc0Q","name":"Subway","city":"Toronto","latitude":43.6590216,"longitude":-79.3491051,"review_count":4,"categories":"Restaurants, Delicatessen, Food, Fast Food, Sandwiches"},{"business_id":"1UV-aVwRPCGgg5R-HAS6vA","name":"Sushi Ocean","city":"Toronto","latitude":43.7003236,"longitude":-79.4298279,"review_count":20,"categories":"Restaurants, Japanese"},{"business_id":"UmFL-tksFnHc4ecvABvdhA","name":"Sophie's","city":"Toronto","latitude":43.706325,"longitude":-79.3756489,"review_count":71,"categories":"Restaurants, Breakfast & Brunch"},{"business_id":"9Jn6MJZMz2R6rcszqmXDqg","name":"Luci Restaurant","city":"Toronto","latitude":43.6275198,"longitude":-79.4982894,"review_count":49,"categories":"Restaurants, Italian"},{"business_id":"zBtR7328Vuts_7B9qm3DVQ","name":"Aunt Elsie's Carribean Kitchen","city":"Toronto","latitude":43.7362402,"longitude":-79.2499133,"review_count":15,"categories":"Restaurants, Food, Caribbean"},{"business_id":"etguV_MsaalPtAIy999gPQ","name":"KOOYI Korean Grill","city":"Toronto","latitude":43.6541714,"longitude":-79.4015556,"review_count":7,"categories":"Restaurants, Barbeque, Korean, Tapas\/Small Plates"},{"business_id":"BZInFfFFCne6n3zmzg8zzA","name":"Starbucks","city":"Toronto","latitude":43.6497992662,"longitude":-79.3793812386,"review_count":5,"categories":"Restaurants, Food, Coffee & Tea, Sandwiches, Bakeries"},{"business_id":"Ee8Saq8Al4iaOeVDHNmVUw","name":"One Two Snack","city":"Toronto","latitude":43.7755828922,"longitude":-79.4134399477,"review_count":10,"categories":"Restaurants, Food, Food Stands, Taiwanese, Juice Bars & Smoothies, Street Vendors, Japanese, Asian Fusion"},{"business_id":"4RX8xAIil_Wljid422gvDw","name":"Hero Certified Burgers - Bayview & Leaside","city":"Toronto","latitude":43.7067018,"longitude":-79.3755097,"review_count":4,"categories":"Restaurants, Burgers"},{"business_id":"z-5YXiSmZchuoANnqfp1vg","name":"Pi-Tom's Thai Cuisine","city":"Toronto","latitude":43.6568116,"longitude":-79.3742278,"review_count":14,"categories":"Restaurants, Thai"},{"business_id":"-ykmZ_RloqRJZt3WAetv5A","name":"Segar","city":"Toronto","latitude":43.7054487,"longitude":-79.3750758,"review_count":8,"categories":"Restaurants, Asian Fusion"},{"business_id":"U5jgjTB442DtR-lEvV-RdQ","name":"Green Zebra Kitchen","city":"Toronto","latitude":43.7181806,"longitude":-79.3124022,"review_count":7,"categories":"Restaurants, Food Delivery Services, Food, Vegetarian, Vegan"},{"business_id":"r3Px2dU0JatrrBBV66bBnA","name":"Mr Souvlaki","city":"Toronto","latitude":43.6388324,"longitude":-79.3803942,"review_count":3,"categories":"Restaurants, Greek"},{"business_id":"fiFNpXVk4OkW76vzDtL7JQ","name":"Valley's Top Notch","city":"Toronto","latitude":43.6823561,"longitude":-79.3272382,"review_count":7,"categories":"Restaurants, Pizza"},{"business_id":"bfR-vJvrjdOJaWsXGJgzPA","name":"Veda Healthy Indian Takeout","city":"Toronto","latitude":43.6725134,"longitude":-79.3878261,"review_count":26,"categories":"Restaurants, Pakistani, Indian, Fast Food, Food, Food Delivery Services, Middle Eastern"},{"business_id":"vAz5pelrjwkpMDo_OHCDAg","name":"Kuya Willie's Kainan","city":"Toronto","latitude":43.7592876,"longitude":-79.310866,"review_count":4,"categories":"Restaurants, Filipino, Breakfast & Brunch"},{"business_id":"Koigz4oP9YnHlPhBhqXCxA","name":"New Dynasty Bakery","city":"Toronto","latitude":43.7836563,"longitude":-79.2879344,"review_count":5,"categories":"Restaurants, Food, Chinese, Bakeries"},{"business_id":"0ViMx28wkb0MCrWrs25j_A","name":"Greta Solomon's","city":"Toronto","latitude":43.6622335,"longitude":-79.3353151,"review_count":32,"categories":"Restaurants, French"},{"business_id":"TJstASXrfYFnVz5-zfSeWA","name":"Aroma Espresso Bar","city":"Toronto","latitude":43.6593233,"longitude":-79.3894167,"review_count":9,"categories":"Restaurants, Food, Sandwiches, Salad, Coffee & Tea"},{"business_id":"iRw32LUAOVeD-GDRdNgNXQ","name":"Moon Congee","city":"Toronto","latitude":43.744249,"longitude":-79.486821,"review_count":18,"categories":"Restaurants, Bubble Tea, Chinese, Cantonese, Dim Sum, Food"},{"business_id":"9c-JiFCUpA2Y6yZlBlS7xg","name":"8 Sushi","city":"Toronto","latitude":43.6780808318,"longitude":-79.3475472609,"review_count":53,"categories":"Restaurants, Sushi Bars, Japanese"},{"business_id":"wRXv4hipclyIJaHbyDGZrg","name":"E Sushi","city":"Toronto","latitude":43.6653068,"longitude":-79.4104203,"review_count":3,"categories":"Restaurants, Sushi Bars"},{"business_id":"XDKZX2LBEfGQLXg16tOldg","name":"Sushi Shop","city":"Toronto","latitude":43.6612136,"longitude":-79.3826809,"review_count":11,"categories":"Restaurants, Sushi Bars, Japanese"},{"business_id":"IwcntSsDebOSZqaUQ41n6g","name":"Fusia Dog","city":"Toronto","latitude":43.6499311,"longitude":-79.3892003,"review_count":16,"categories":"Restaurants, Hot Dogs"},{"business_id":"_e-TK8kdbyuu9oM1X1l4SQ","name":"Mi Taco Taqueria","city":"Toronto","latitude":43.6654055,"longitude":-79.4090503,"review_count":4,"categories":"Restaurants, Mexican"},{"business_id":"kMgdZVLzAXM1JQwFsPXIlg","name":"Indian Roti House","city":"Toronto","latitude":43.6644362,"longitude":-79.380259,"review_count":35,"categories":"Restaurants, Indian, Food, Ethnic Food, Specialty Food"},{"business_id":"zYzYmPLViy5Q6u7rmL8AYA","name":"Bloke & 4th","city":"Toronto","latitude":43.6454061,"longitude":-79.3941008,"review_count":42,"categories":"Restaurants, American (New), Dance Clubs, Tapas Bars, Tapas\/Small Plates, Nightlife, Canadian (New)"},{"business_id":"H9Ht6OgTMl3PZoX60OzCew","name":"Domino's Pizza","city":"Toronto","latitude":43.601733,"longitude":-79.5008951,"review_count":10,"categories":"Restaurants, Pizza, Italian"},{"business_id":"d042JFqy7ouRbAkGkddSPg","name":"Boston Pizza","city":"Toronto","latitude":43.6593968,"longitude":-79.3818779,"review_count":25,"categories":"Restaurants, Pizza"},{"business_id":"Ww-qDl1G9Kr7igS3ouA_Cw","name":"Boehmer","city":"Toronto","latitude":43.6463531,"longitude":-79.4191781,"review_count":128,"categories":"Restaurants, American (New), Canadian (New)"},{"business_id":"uEDTiYtWzFtJdJqRcPq8Lw","name":"deKEFIR","city":"Toronto","latitude":43.6503406,"longitude":-79.3805207,"review_count":116,"categories":"Restaurants, Food, Juice Bars & Smoothies, Cafes, Ice Cream & Frozen Yogurt, Desserts"},{"business_id":"esnvHQxunLTAckQpntqbCg","name":"Stelvio","city":"Toronto","latitude":43.6518201,"longitude":-79.4077955,"review_count":107,"categories":"Restaurants, Italian"},{"business_id":"T5G-WS6ER0TZ4aZou8Kbfw","name":"Freshwest Grill","city":"Toronto","latitude":43.6468356,"longitude":-79.3825552,"review_count":27,"categories":"Restaurants, Tex-Mex"},{"business_id":"-HlfeTND7PATNVduJ_35lA","name":"Mariko Japanese Restaurant","city":"Toronto","latitude":43.665247,"longitude":-79.4102726,"review_count":48,"categories":"Restaurants, Japanese, Sushi Bars"},{"business_id":"yE0vKTYITUN3EC3hbYxyXQ","name":"BSG Hot Pot","city":"Toronto","latitude":43.805762,"longitude":-79.3383451,"review_count":15,"categories":"Restaurants, Chinese, Seafood, Buffets, Hot Pot"},{"business_id":"REbNih8rOHc63a7WRRKb3A","name":"z-teca Gourmet Burritos","city":"Toronto","latitude":43.6481326,"longitude":-79.3795089,"review_count":27,"categories":"Restaurants, Fast Food, Gluten-Free, Tex-Mex, Mexican, American (New)"},{"business_id":"yZsVStKgRul_oNjHsV99LQ","name":"Kibo House Sushi and Cafe","city":"Toronto","latitude":43.6814409,"longitude":-79.4263448,"review_count":3,"categories":"Restaurants, Sushi Bars, Coffee & Tea, Food"},{"business_id":"ob8p3VRALQ9obHSaHnH7lQ","name":"Lucky Chinese Restaurant","city":"Toronto","latitude":43.7626614,"longitude":-79.2141981,"review_count":10,"categories":"Restaurants, Chinese, Hakka"},{"business_id":"jgsUT8Ft2bF7h1TobSGqUw","name":"Inter Steer Tavern","city":"Toronto","latitude":43.6498442,"longitude":-79.450111,"review_count":24,"categories":"Restaurants, Polish"},{"business_id":"7Rp2yHgW0JR3OrSWNdISKw","name":"Popular Pot Inc \/ Zhuang Yuan Bbq Bar","city":"Toronto","latitude":43.6558075,"longitude":-79.3989112,"review_count":16,"categories":"Restaurants, Barbeque, Chinese"},{"business_id":"pP0in1GA6N05Wgn60UIaJA","name":"La Vecchia Ristorante","city":"Toronto","latitude":43.6255752,"longitude":-79.4774224,"review_count":13,"categories":"Restaurants, Italian, Seafood, Pizza"},{"business_id":"6U73zDP4NuFKyOQLSigcPA","name":"Spring China House","city":"Toronto","latitude":43.7434206,"longitude":-79.3019374,"review_count":8,"categories":"Restaurants, Food Delivery Services, Food, Chinese"},{"business_id":"oje-zkRgv-p7XzW6KXjymQ","name":"Jollibee","city":"Toronto","latitude":43.7328891568,"longitude":-79.4520440698,"review_count":5,"categories":"Restaurants, Filipino, Fast Food"},{"business_id":"tM_A6uLiKvUCKSdSZxYLYw","name":"Pizza Gigi","city":"Toronto","latitude":43.6616759,"longitude":-79.4083467,"review_count":69,"categories":"Restaurants, Caterers, Pizza, Event Planning & Services"},{"business_id":"_81fRJ9m8Fn1s8ixPun46A","name":"Union Social Eatery","city":"Toronto","latitude":43.7639042111,"longitude":-79.4111878641,"review_count":238,"categories":"Restaurants, Gastropubs, Barbeque, Burgers"},{"business_id":"hmIafR83qNeL-IqojCyQzg","name":"Le Gourmet Shawarma Caf\u00e9","city":"Toronto","latitude":43.7282811,"longitude":-79.4030415,"review_count":3,"categories":"Restaurants, Middle Eastern"},{"business_id":"Jcyu0ml7rxizEA8giSH-8A","name":"Kandahar Kabab","city":"Toronto","latitude":43.8125438,"longitude":-79.2423676,"review_count":109,"categories":"Restaurants, Afghan, Halal"},{"business_id":"FhzGEjtX4ieb2BzpKy_hGQ","name":"Sake Sushi Bar","city":"Toronto","latitude":43.6636771,"longitude":-79.4174418,"review_count":17,"categories":"Restaurants, Sushi Bars, Japanese"},{"business_id":"AUejVfLtBF_aOFipdT2Rig","name":"Le Swan","city":"Toronto","latitude":43.6451241,"longitude":-79.4148538,"review_count":31,"categories":"Restaurants, French"},{"business_id":"Kxop0nGA-BUrwYD4EGhyPA","name":"Chinese Traditional Buns","city":"Toronto","latitude":43.6529547,"longitude":-79.3991357,"review_count":81,"categories":"Restaurants, Chinese, Food, Bakeries"},{"business_id":"CF1mHEifQquzObJFzLHVHQ","name":"Pour Girl","city":"Toronto","latitude":43.6589356,"longitude":-79.394712,"review_count":13,"categories":"Restaurants, American (New), Canadian (New)"},{"business_id":"l0jSI_t4rm4Q3zb74mp0Kg","name":"Starbucks","city":"Toronto","latitude":43.669736,"longitude":-79.3020569,"review_count":8,"categories":"Restaurants, Food, Cafes, Coffee & Tea"},{"business_id":"xwmwTpzw9XSwK-UT5Ka3HQ","name":"Bellwoods Brewery","city":"Toronto","latitude":43.64706,"longitude":-79.4202224,"review_count":331,"categories":"Restaurants, Canadian (New), Food, Breweries"},{"business_id":"GEvolb_U74NXgfgdxrVtyQ","name":"Nichiban Sushi 4 U","city":"Toronto","latitude":43.8229701,"longitude":-79.3063733,"review_count":153,"categories":"Restaurants, Sushi Bars"},{"business_id":"0rjArZxONWhzsr58ddAeEQ","name":"Fat Bastard Burrito Co","city":"Toronto","latitude":43.6497757793,"longitude":-79.4830290513,"review_count":26,"categories":"Restaurants, Mexican"},{"business_id":"v9DncDynhn7f-RBURtcSFw","name":"Sushi & Tea","city":"Toronto","latitude":43.7259036,"longitude":-79.2303772,"review_count":23,"categories":"Restaurants, Sushi Bars"},{"business_id":"BUfxepveQVVrtRmHai1OTw","name":"Pizza Nova","city":"Toronto","latitude":43.8355856,"longitude":-79.253969,"review_count":5,"categories":"Restaurants, Pizza"},{"business_id":"McVmSLVRJBDWIuQO7D6GJg","name":"Soos","city":"Toronto","latitude":43.6462416,"longitude":-79.4197717,"review_count":158,"categories":"Restaurants, Malaysian"},{"business_id":"fIcKzkoWIH1baDGywOaifQ","name":"Rush Lane & Co","city":"Toronto","latitude":43.6478512,"longitude":-79.4006604,"review_count":52,"categories":"Restaurants, Gastropubs, Cocktail Bars, Bars, Nightlife, Lounges"},{"business_id":"nWD8OWd_DAXGubGpFenmiw","name":"La Hacienda Restaurant","city":"Toronto","latitude":43.6469271,"longitude":-79.4061574,"review_count":54,"categories":"Restaurants, Mexican"},{"business_id":"x0ghbO1UjgSsQPvmCEBrZw","name":"Quince","city":"Toronto","latitude":43.7028181,"longitude":-79.3977074,"review_count":31,"categories":"Restaurants, Mediterranean"},{"business_id":"BorscpFKDfjDMwkhUXpnxQ","name":"Gyukatsu Kyoto Katsugyu","city":"Toronto","latitude":43.6568241,"longitude":-79.3761741,"review_count":35,"categories":"Restaurants, Japanese"},{"business_id":"5awZCHIPylSsb1HdwcXEhg","name":"Burger Bar","city":"Toronto","latitude":43.6569386,"longitude":-79.4028472,"review_count":81,"categories":"Restaurants, Burgers"},{"business_id":"Ro_--o91peOp3KFXUieXcA","name":"Tim Hortons","city":"Toronto","latitude":43.752814,"longitude":-79.3140672,"review_count":4,"categories":"Restaurants, Food, Coffee & Tea, Donuts, Cafes"},{"business_id":"Dg4k7Y4Zy17ht_KCY7PfSQ","name":"The MoMo House","city":"Toronto","latitude":43.6410601,"longitude":-79.4350453,"review_count":9,"categories":"Restaurants, Dumplings"},{"business_id":"3tYUoa6fOerRek-Pv9tQVw","name":"McDonald's","city":"Toronto","latitude":43.6388471,"longitude":-79.4464617,"review_count":11,"categories":"Restaurants, Burgers, Fast Food, Food, Coffee & Tea"},{"business_id":"fyekfJA4hXNgMQ09HL9WIA","name":"Famiglia Baldassarre","city":"Toronto","latitude":43.6704531,"longitude":-79.4349792,"review_count":42,"categories":"Restaurants, Food, Specialty Food, Italian"},{"business_id":"147BvO6Fm58E-kYoXTZfPw","name":"z-teca Gourmet Burritos","city":"Toronto","latitude":43.64309,"longitude":-79.3830719,"review_count":12,"categories":"Restaurants, Food Court, Mexican, Fast Food, Tex-Mex"},{"business_id":"dd3GZs6zW2t7BM0cbxAzvg","name":"La Palette","city":"Toronto","latitude":43.6479719,"longitude":-79.4010113,"review_count":228,"categories":"Restaurants, French, Nightlife, Desserts, Beer, Wine & Spirits, Bars, Food"},{"business_id":"zzH3E5DA8eMzFwv2k5izyw","name":"Kensington Sushi Market","city":"Toronto","latitude":43.656036,"longitude":-79.402388,"review_count":18,"categories":"Restaurants, Sushi Bars"},{"business_id":"dYQaLCEog1QpQShowSVZig","name":"Lee Town Chinese Restaurant","city":"Toronto","latitude":43.65855,"longitude":-79.382072,"review_count":5,"categories":"Restaurants, Ethnic Food, Chinese, Specialty Food, Food"},{"business_id":"M541HCnBea844bejABQXAw","name":"O'Doughs","city":"Toronto","latitude":43.7464094,"longitude":-79.5272798,"review_count":3,"categories":"Restaurants, Gluten-Free, Food, Specialty Food, Bagels"},{"business_id":"HUYEadSbGSQNHXFmT2Ujjw","name":"Manpuku Japanese Eatery","city":"Toronto","latitude":43.6536651,"longitude":-79.3908802,"review_count":464,"categories":"Restaurants, Japanese, Noodles"},{"business_id":"--DaPTJW3-tB1vP-PfdTEg","name":"Sunnyside Grill","city":"Toronto","latitude":43.6778069,"longitude":-79.4446742,"review_count":51,"categories":"Restaurants, Breakfast & Brunch"},{"business_id":"8O7nxCcZ_C28i955kXwzGA","name":"Biggu Sushi House","city":"Toronto","latitude":43.7579905202,"longitude":-79.4104090464,"review_count":48,"categories":"Restaurants, Sushi Bars"},{"business_id":"B7gNeADVCoDlDyHhda9AyA","name":"Villa Madina","city":"Toronto","latitude":43.648865,"longitude":-79.379996,"review_count":8,"categories":"Restaurants, Fast Food, Mediterranean"},{"business_id":"NMTiQ74472-sQFPK9aITNw","name":"Love Me Tender - Steakhouse","city":"Toronto","latitude":43.6700296,"longitude":-79.30173,"review_count":14,"categories":"Restaurants, Burgers, Steakhouses"},{"business_id":"UWWBnnlVDW5US-TaIsNoKw","name":"FOUR","city":"Toronto","latitude":43.6473454,"longitude":-79.3797099,"review_count":47,"categories":"Restaurants, Canadian (New), Gluten-Free, American (New)"},{"business_id":"fJvY-QjDY1ZWWArjx9rRIw","name":"KINTON RAMEN","city":"Toronto","latitude":43.6640864,"longitude":-79.4163258,"review_count":124,"categories":"Restaurants, Japanese, Ramen"},{"business_id":"_pm_LHokHREl-BVO-vjcaA","name":"Nicey's Eatery","city":"Toronto","latitude":43.8120515,"longitude":-79.2439501,"review_count":40,"categories":"Restaurants, Caribbean"},{"business_id":"OedNdVrDavAlUBV7d9oKXw","name":"Porzia Restaurant","city":"Toronto","latitude":43.6418337,"longitude":-79.4311034,"review_count":27,"categories":"Restaurants, Canadian (New)"},{"business_id":"mr4FiPaXTWlJ3qGzp4-7Yg","name":"Table 17","city":"Toronto","latitude":43.6596911,"longitude":-79.3473714,"review_count":108,"categories":"Restaurants, French, Modern European"},{"business_id":"LqagbpfV0I0ZeanblrrZsA","name":"Skyland De Shanghai","city":"Toronto","latitude":43.8252708,"longitude":-79.3000605,"review_count":11,"categories":"Restaurants, Food, Dim Sum, Chinese"},{"business_id":"AOrWjg7SjqrtUtp_sw6MrA","name":"Woburn Garden","city":"Toronto","latitude":43.7757149589,"longitude":-79.2306143045,"review_count":5,"categories":"Restaurants, Chinese"},{"business_id":"u2-EcTjvFanTQwTlU1_eNg","name":"Island Foods","city":"Toronto","latitude":43.63921,"longitude":-79.4267743,"review_count":150,"categories":"Restaurants, Caribbean"},{"business_id":"zZoWJPYXK4AwBh0tn5pmsw","name":"Magic Oven","city":"Toronto","latitude":43.6649298528,"longitude":-79.3850847018,"review_count":50,"categories":"Restaurants, Pizza"},{"business_id":"HRJsogUP40mhRexHoutI7g","name":"The Woodlawn Public House","city":"Toronto","latitude":43.6836447191,"longitude":-79.3924121931,"review_count":4,"categories":"Restaurants, Nightlife, Bars, Pubs"},{"business_id":"H3sjiaSQuqT9bfIkj-JMsg","name":"King tasty BBQ","city":"Toronto","latitude":43.6651748,"longitude":-79.3525018,"review_count":4,"categories":"Restaurants, Barbeque, Chinese"},{"business_id":"Js5dRDxKpB8TqcO8tNPEvA","name":"Lebanon Express","city":"Toronto","latitude":43.6610723,"longitude":-79.3827591,"review_count":73,"categories":"Restaurants, Middle Eastern, Food"},{"business_id":"1uK8uzFOaZTLR5_eDhjAdA","name":"The Big Carrot","city":"Toronto","latitude":43.678748,"longitude":-79.297723,"review_count":8,"categories":"Restaurants, Juice Bars & Smoothies, Grocery, Shopping, Food, Vitamins & Supplements, Specialty Food, Health Markets"},{"business_id":"uoRdhBoM5guXTjLqDSpxpg","name":"Summer House","city":"Toronto","latitude":43.7558537,"longitude":-79.4379179,"review_count":16,"categories":"Restaurants, Thai, Filipino"},{"business_id":"ngdC2c9FFkyepjqJRRcLXw","name":"Trecce","city":"Toronto","latitude":43.6845613035,"longitude":-79.3188472804,"review_count":11,"categories":"Restaurants, Italian, Pizza, Mediterranean"},{"business_id":"1xgJ9E_s_8n9fgw3HQbbug","name":"La Vinia","city":"Toronto","latitude":43.6163389,"longitude":-79.488119,"review_count":59,"categories":"Restaurants, Spanish, Tapas Bars"},{"business_id":"bQm046mj02fKlNMvoS2SBg","name":"Anatolia Restaurant","city":"Toronto","latitude":43.6448003,"longitude":-79.5329217,"review_count":166,"categories":"Restaurants, Turkish, Event Planning & Services, Mediterranean, Caterers"},{"business_id":"rt7U1Ex5y8_u8P5p5gGEkg","name":"A&W","city":"Toronto","latitude":43.675926,"longitude":-79.358858,"review_count":4,"categories":"Restaurants, Burgers, Fast Food"},{"business_id":"PlYrlj86zAYljZTRCBSZ3A","name":"Nom Nom Nom Poutine","city":"Toronto","latitude":43.6520696113,"longitude":-79.4047858939,"review_count":102,"categories":"Restaurants, Creperies, Food, Poutineries, Street Vendors, French"},{"business_id":"h-4BCEM4U0SM77G6DnAxJA","name":"Marky & Sparky's Smokehouse","city":"Toronto","latitude":43.660199,"longitude":-79.4797899,"review_count":31,"categories":"Restaurants, Barbeque"},{"business_id":"sdXhQco_76dRejNaxfgacQ","name":"Sit In Bangkok","city":"Toronto","latitude":43.6551273,"longitude":-79.4183899,"review_count":8,"categories":"Restaurants, Thai"},{"business_id":"O1TvPrgkK2bUo5O5aSZ7lw","name":"Rol San","city":"Toronto","latitude":43.6543527997,"longitude":-79.3983133882,"review_count":722,"categories":"Restaurants, Dim Sum, Chinese"},{"business_id":"vvqkt8lTTTqENZgmvY7f7g","name":"Kibo Sushi House","city":"Toronto","latitude":43.6719017,"longitude":-79.3784149,"review_count":3,"categories":"Restaurants, Sushi Bars, Japanese"},{"business_id":"lVVJMvqu4LXL5rBqjO6eqg","name":"Tofu Village - House of Soon Tofu","city":"Toronto","latitude":43.6638449,"longitude":-79.4166687,"review_count":188,"categories":"Restaurants, Korean"},{"business_id":"127lSDZ1lvVMrhEet6un5Q","name":"McDonald's","city":"Toronto","latitude":43.7326528,"longitude":-79.4045824,"review_count":8,"categories":"Restaurants, Burgers, Fast Food, Food, Coffee & Tea"},{"business_id":"yQCRlPOYFo_95f1sTyxwHg","name":"Sushi Gen","city":"Toronto","latitude":43.6888585,"longitude":-79.3947123,"review_count":44,"categories":"Restaurants, Sushi Bars"},{"business_id":"Pr8Qdo1BOMwQFtmITK5NTg","name":"Mr Greek Mediterranean Grill","city":"Toronto","latitude":43.7690717,"longitude":-79.4693148,"review_count":13,"categories":"Restaurants, Mediterranean"},{"business_id":"GIHb9hhmyaAKGncuJMTI8g","name":"Pho Com Vietnam","city":"Toronto","latitude":43.7569679,"longitude":-79.5196872,"review_count":21,"categories":"Restaurants, Vietnamese"},{"business_id":"0yr2L_2CVaLV9SLIGWngPA","name":"Cafe Cocoro","city":"Toronto","latitude":43.6850218,"longitude":-79.3148783,"review_count":25,"categories":"Restaurants, Food, Bakeries, Korean, Desserts, Cafes, Coffee & Tea"},{"business_id":"hpte2mkCkY-CNg9OREQrMA","name":"A&W","city":"Toronto","latitude":43.6491013,"longitude":-79.3959291,"review_count":27,"categories":"Restaurants, Fast Food, Burgers"},{"business_id":"qnfFdA-Ij8jpCPk6IV6igg","name":"Cuppa Tea","city":"Toronto","latitude":43.6616374,"longitude":-79.3816808,"review_count":76,"categories":"Restaurants, Chinese, Tea Rooms, Food"},{"business_id":"Rd6Nk0rYburd6G21QUxa8Q","name":"Li's Oriental Kitchen","city":"Toronto","latitude":43.6378188,"longitude":-79.5392906,"review_count":11,"categories":"Restaurants, Chinese"},{"business_id":"7N4_jIwfNZr48OGTjwqF-w","name":"Atlas","city":"Toronto","latitude":43.6771569338,"longitude":-79.3984616869,"review_count":17,"categories":"Restaurants, Moroccan, Canadian (New)"},{"business_id":"oXMvjbVKKr629a2FTxXtJA","name":"Nando's Flame Grilled Chicken","city":"Toronto","latitude":43.7130336385,"longitude":-79.3597540197,"review_count":69,"categories":"Restaurants, American (Traditional), Portuguese, Barbeque, South African, Chicken Wings, African"},{"business_id":"3ju6l-HjSFxQN2r6K7i1gQ","name":"Taqueria Gus","city":"Toronto","latitude":43.6543807,"longitude":-79.4016559,"review_count":21,"categories":"Restaurants, Mexican"},{"business_id":"5By2_wEFEzCO1-34AdJxGg","name":"Korea House","city":"Toronto","latitude":43.6641818,"longitude":-79.416256,"review_count":52,"categories":"Restaurants, Korean"},{"business_id":"fZ5jJ_TOJHeaRi5UBdRvYw","name":"Soup It Up","city":"Toronto","latitude":43.670313,"longitude":-79.3864459,"review_count":6,"categories":"Restaurants, American (Traditional)"},{"business_id":"UYop9KYT-_mJsc2bcH83jw","name":"The Pickle Barrel","city":"Toronto","latitude":43.6567941,"longitude":-79.3814207,"review_count":275,"categories":"Restaurants, American (New), Canadian (New), Delis"},{"business_id":"ShlPoJpwWCrkUvYy6fUEow","name":"Brussels Bistro","city":"Toronto","latitude":43.6698537,"longitude":-79.3008106,"review_count":16,"categories":"Restaurants, Canadian (New), French"},{"business_id":"vs-eTn1UgR8yokQrGp_BlQ","name":"Mr Cream","city":"Toronto","latitude":43.6542724,"longitude":-79.4004057,"review_count":4,"categories":"Restaurants, Food, Ice Cream & Frozen Yogurt"},{"business_id":"dndeG_UVJHF1yAdLlZxPzA","name":"Panda Chef Wok & Sushi","city":"Toronto","latitude":43.7269641,"longitude":-79.4803635,"review_count":10,"categories":"Restaurants, Japanese, Chinese"},{"business_id":"QgcVHtK4som693gpaCWh6A","name":"Asada Mexican Grill","city":"Toronto","latitude":43.7004579149,"longitude":-79.3968301266,"review_count":14,"categories":"Restaurants, Mexican"},{"business_id":"aqKkw9Fefvum4cF6GtIQiA","name":"Mojito Cubano","city":"Toronto","latitude":43.640361,"longitude":-79.4383991,"review_count":10,"categories":"Restaurants, Cuban, Bars, Nightlife, Latin American, Beer Bar"},{"business_id":"Sa4-TzGkHKzCA99ZdkPJYA","name":"Mirage Noodle Restaurant","city":"Toronto","latitude":43.8033881,"longitude":-79.2878535,"review_count":9,"categories":"Restaurants, Chinese"},{"business_id":"lr--wccUV1nr4qr2aSwhvA","name":"The Commissary","city":"Toronto","latitude":43.660522,"longitude":-79.3424116,"review_count":16,"categories":"Restaurants, Breakfast & Brunch, Cafes"},{"business_id":"nIskoP3-_MttghA3d-eYBA","name":"La Chilaca Taqueria","city":"Toronto","latitude":43.654581,"longitude":-79.4024681,"review_count":52,"categories":"Restaurants, Mexican"},{"business_id":"RoGAy8b2j0Oa7TJgpotM8A","name":"Shahi Mahal","city":"Toronto","latitude":43.7356120236,"longitude":-79.6047321098,"review_count":5,"categories":"Restaurants, Indian, Nightlife, Bars"},{"business_id":"9xitj8uws6IpbhlxV5tpSQ","name":"The Only Cuisine Corp","city":"Toronto","latitude":43.7867037446,"longitude":-79.270709306,"review_count":11,"categories":"Restaurants, Chinese"},{"business_id":"iQDPdxmXXvW-mgy9gsKXhQ","name":"Starbucks Reserve","city":"Toronto","latitude":43.735071,"longitude":-79.344001,"review_count":60,"categories":"Restaurants, Coffee Roasteries, Coffee & Tea, Cafes, Food"},{"business_id":"QE9FQ5PiQXd76nT8zgSOZw","name":"Chaska Express","city":"Toronto","latitude":43.64868927,"longitude":-79.3854370117,"review_count":15,"categories":"Restaurants, Indian, Fast Food"},{"business_id":"wT1mRdUeZRNgMB81s3dJDw","name":"Boku Sushi","city":"Toronto","latitude":43.6500621,"longitude":-79.3602226,"review_count":70,"categories":"Restaurants, Sushi Bars, Japanese, Seafood, Ramen"},{"business_id":"Pf8flcMF3hco_rG0EdUGog","name":"Bbreakfasts","city":"Toronto","latitude":43.6680033,"longitude":-79.3885578,"review_count":7,"categories":"Restaurants, Burgers, Fast Food, Breakfast & Brunch"},{"business_id":"tPThFZp-wOIct9orErmaLQ","name":"Hot Wings Grill and Rib House","city":"Toronto","latitude":43.6477959,"longitude":-79.4005854,"review_count":20,"categories":"Restaurants, Chicken Wings"},{"business_id":"zm7e0hmW4aPvoRsAdqqEyA","name":"Milestones Restaurants","city":"Toronto","latitude":43.7260866,"longitude":-79.4539735,"review_count":52,"categories":"Restaurants, Comfort Food, American (New), Canadian (New), Bars, Nightlife"},{"business_id":"it60dV3uk53njDZi8Yq2Sg","name":"Foxes Den Bar & Grill","city":"Toronto","latitude":43.6671529,"longitude":-79.3880081,"review_count":17,"categories":"Restaurants, Bars, Fish & Chips, Nightlife, Pubs"},{"business_id":"q_6nESzuHPGpS-6Q0hCeww","name":"SS Kitchen","city":"Toronto","latitude":43.7986232,"longitude":-79.1388754,"review_count":7,"categories":"Restaurants, Chinese"},{"business_id":"vnCU8LWS1xMfm-94Ojwzmw","name":"Hakka Masala Restaurant","city":"Toronto","latitude":43.7524465,"longitude":-79.2622936,"review_count":3,"categories":"Restaurants, Chinese"},{"business_id":"24Sp27fzzXJrQdJhW2_mGA","name":"Saxony Restaurant","city":"Toronto","latitude":43.6711125,"longitude":-79.3762239,"review_count":3,"categories":"Restaurants, Salad, Barbeque, Delis"},{"business_id":"isYj0rlYyUv3bUd4ZChxlQ","name":"Sashimi Island","city":"Toronto","latitude":43.6546969,"longitude":-79.4150229,"review_count":67,"categories":"Restaurants, Japanese, Sushi Bars"},{"business_id":"By4Suw6S-whbg51y_967BQ","name":"Snakes & Lattes Midtown","city":"Toronto","latitude":43.7068333,"longitude":-79.3965274,"review_count":52,"categories":"Restaurants, Cafes"},{"business_id":"JWAulPEbugeLBkV-G0oZIg","name":"Pho Anh Vu","city":"Toronto","latitude":43.7183600177,"longitude":-79.4573690012,"review_count":19,"categories":"Restaurants, Vietnamese"},{"business_id":"o2uZemnFnlyEV0YDEiWBIw","name":"Double D's","city":"Toronto","latitude":43.6689515,"longitude":-79.3374253,"review_count":97,"categories":"Restaurants, Pizza"},{"business_id":"RKj8NwzpWl91kuQAyRW7bA","name":"Hakka Chopsticks","city":"Toronto","latitude":43.6902081842,"longitude":-79.293025454,"review_count":4,"categories":"Restaurants, Indian, Chinese"},{"business_id":"KOAYl73BQ-2tQe0Q-SA9jQ","name":"Blowfish Restaurant & Sake Bar","city":"Toronto","latitude":43.6441324884,"longitude":-79.4025035256,"review_count":110,"categories":"Restaurants, Japanese, Seafood"},{"business_id":"sQ2dJZ-oHWe2rs0QFLOUJQ","name":"Souk Tabule","city":"Toronto","latitude":43.653625746,"longitude":-79.354342011,"review_count":98,"categories":"Restaurants, Middle Eastern, Soup, Salad"},{"business_id":"mzHhzSzecV6gZviB8fot_g","name":"A&W","city":"Toronto","latitude":43.6665233,"longitude":-79.3778691,"review_count":5,"categories":"Restaurants, Fast Food, Burgers"},{"business_id":"MRMm0pOybd50JIRTCWeHrg","name":"Sharon Garden Express Bloor","city":"Toronto","latitude":43.6639346,"longitude":-79.417881,"review_count":5,"categories":"Restaurants, Korean, Barbeque"},{"business_id":"H_ngMvvTOse6N5scXHDZdQ","name":"Pizza Nova","city":"Toronto","latitude":43.665473,"longitude":-79.490748,"review_count":6,"categories":"Restaurants, Pizza"},{"business_id":"qo9JoIB9iZxGl-KQGDzEWw","name":"Eight Noodles","city":"Toronto","latitude":43.7785043,"longitude":-79.3085494,"review_count":23,"categories":"Restaurants, Chinese"},{"business_id":"CKJnoUSWocdVIj6Fqbgm5g","name":"The Red Tomato","city":"Toronto","latitude":43.6460927,"longitude":-79.3907967,"review_count":57,"categories":"Restaurants, Asian Fusion, Italian"},{"business_id":"vUczj8SVTJ8bKIjZ7yKsvQ","name":"Heaven's Grill","city":"Toronto","latitude":43.736015,"longitude":-79.4423156,"review_count":15,"categories":"Restaurants, Diners"},{"business_id":"WCCq9GziBRcppxZBYbo6Pg","name":"Kibo Sushi House","city":"Toronto","latitude":43.6571797376,"longitude":-79.4476240147,"review_count":9,"categories":"Restaurants, Sushi Bars, Korean, Food, Specialty Food"},{"business_id":"xkI2WIzHV-ft13P9GOMY_g","name":"Tri Resto Pizzeria","city":"Toronto","latitude":43.6656635841,"longitude":-79.4820353419,"review_count":16,"categories":"Restaurants, Pizza, Italian, Salad"},{"business_id":"-TIFqTXoTKMZ-ZN_K1BTxw","name":"Simon Sushi","city":"Toronto","latitude":43.6568942,"longitude":-79.399271,"review_count":54,"categories":"Restaurants, Sushi Bars"},{"business_id":"w5t3_2eIXsl2JiFptdzGaA","name":"Encore Hakka Restaurant","city":"Toronto","latitude":43.7546008687,"longitude":-79.4875774806,"review_count":4,"categories":"Restaurants, Indian, Hakka, Seafood, Chinese, Chicken Shop, Caribbean"},{"business_id":"pgbVuDaki1bJs670eKF3qQ","name":"Kabul Kebob and Shawarma","city":"Toronto","latitude":43.7064550832,"longitude":-79.3997823183,"review_count":7,"categories":"Restaurants, Afghan, Persian\/Iranian"},{"business_id":"KSXhl0JY7XNeBW732fURQg","name":"Popeyes Louisiana Kitchen","city":"Toronto","latitude":43.7078302,"longitude":-79.3918249,"review_count":12,"categories":"Restaurants, Fast Food"},{"business_id":"Axd4Ggd3H9dLAWD__UHYVQ","name":"Easy Drink Easy Go","city":"Toronto","latitude":43.6532199493,"longitude":-79.3970802426,"review_count":20,"categories":"Restaurants, Food, Cafes, Coffee & Tea, Chinese, Tea Rooms"},{"business_id":"BHV_IfzziGbZ2XZD2NoZcg","name":"Hero Certified Burgers","city":"Toronto","latitude":43.6587636196,"longitude":-79.3882001873,"review_count":3,"categories":"Restaurants, Burgers"},{"business_id":"UWgSgYo0aYgCrIlN4MmSaA","name":"Tim Hortons","city":"Toronto","latitude":43.6627410493,"longitude":-79.3100418895,"review_count":8,"categories":"Restaurants, Donuts, Sandwiches, Bakeries, Coffee & Tea, Food"},{"business_id":"0tMhUM4FJy-onBd8ppUDng","name":"Wrap & Grab","city":"Toronto","latitude":43.6551707,"longitude":-79.3862637,"review_count":12,"categories":"Restaurants, Middle Eastern"},{"business_id":"onMp1NHt2UHZ4qbpU52Y6Q","name":"Longbranch Fish and Chips","city":"Toronto","latitude":43.5969836,"longitude":-79.5225263,"review_count":19,"categories":"Restaurants, Fish & Chips"},{"business_id":"9QgxFnsLqB1CHCA0F2bGzg","name":"Hey Lucy","city":"Toronto","latitude":43.66395,"longitude":-79.3686058,"review_count":43,"categories":"Restaurants, Pizza, Italian, Sandwiches, Breakfast & Brunch"},{"business_id":"QOoQ5F9K0SAC0suH9hOMWw","name":"Starbucks","city":"Toronto","latitude":43.6540644,"longitude":-79.3806966,"review_count":5,"categories":"Restaurants, Food, Cafes, Coffee & Tea"},{"business_id":"to3oe-3qmAOJ5hE71k0FNg","name":"College Street Diner","city":"Toronto","latitude":43.6569431,"longitude":-79.4060062,"review_count":12,"categories":"Restaurants, Diners, Breakfast & Brunch"},{"business_id":"7IOt1SahnsyuMwTcuZgFLQ","name":"Melt Grilled Cheese","city":"Toronto","latitude":43.6491647,"longitude":-79.3916265,"review_count":42,"categories":"Restaurants, Sandwiches, Delis"},{"business_id":"StWSgLnWkuSocMbMcwEQkw","name":"Chef Jenny G's Fish & Chips","city":"Toronto","latitude":43.672546,"longitude":-79.2880978,"review_count":3,"categories":"Restaurants, Fish & Chips"},{"business_id":"4cJrGawCkZlzPoSBiQXjvA","name":"Kenzo","city":"Toronto","latitude":43.7628587,"longitude":-79.411692,"review_count":90,"categories":"Restaurants, Japanese, Ramen"},{"business_id":"-WBbMDJayOnd0ktCCi3I1Q","name":"Phomono Vietnamese Cuisine","city":"Toronto","latitude":43.7851825,"longitude":-79.477727,"review_count":26,"categories":"Restaurants, Vietnamese"},{"business_id":"WM1C5gtPzFFcWF_bV5H3fQ","name":"Cock-A-Doodle-Doo","city":"Toronto","latitude":43.662581,"longitude":-79.4234977,"review_count":16,"categories":"Restaurants, Bakeries, Gluten-Free, Food"},{"business_id":"VJJveoWmlHroqnRR18K7sA","name":"Le Ti Colibri","city":"Toronto","latitude":43.6563207,"longitude":-79.4025622,"review_count":24,"categories":"Restaurants, Caribbean, Canadian (New)"},{"business_id":"y1AM7MeCN3HaS7SHnxcBfQ","name":"Il Mulino","city":"Toronto","latitude":43.7001105,"longitude":-79.4307194,"review_count":61,"categories":"Restaurants, Italian"},{"business_id":"An5srxEwSWXdm0AvlYMLCQ","name":"Arrabiata Trattoria","city":"Toronto","latitude":43.6676333,"longitude":-79.3858624,"review_count":3,"categories":"Restaurants, Italian"},{"business_id":"SxvKjtbq5qRlFoXrU8Bo9Q","name":"Descendant Detroit Style Pizza","city":"Toronto","latitude":43.6627782075,"longitude":-79.3321695327,"review_count":312,"categories":"Restaurants, Pizza"},{"business_id":"x7_pWYHQWtIHVK7vao_GZA","name":"Barque*","city":"Toronto","latitude":43.6476619,"longitude":-79.4493284,"review_count":32,"categories":"Restaurants, Food, Butcher, Barbeque, Bars, Nightlife, Burgers"},